"","FIPS","name","state","popChange","GQ_ESTIMATES_2019","birthRate","deathRate","increaseRate","intMigrationRate","domMigrationRate","netMigrationRate","proTrump","region","govParty","metro_area","main_econ","lon","lat","per_capita_income","percent_below_poverty","percent_minorities","percentile_rank_social_vulnerability","percent_uninsured","total_population","area_sqmi","percent_smokers","percent_fair_or_poor_health","case_count","death_count","covid_death_rate","covid_death_rate_log"
"1",1001,"Autauga","AL",336,455,11.2,9.7,1.5,-0.3,4.8,4.6,0.727665879,"South","Republican","metro","nonspecialized",-86.6427478088138,32.5349279554825,26168,12.3,24.3,0.3773,8.7216859511,55049,594.44611990953,18.08155718,20.882987328,201253,3441,0.0170978817707065,-4.06880069620452
"2",1003,"Baldwin","AL",5379,2170,10.4,10.5,-0.1,0.4,24,24.4,0.765457123,"South","Republican","metro","recreation",-87.7225752373643,30.7274889936377,28069,13,16.8,0.2757,11.333404467,199510,1589.80742490394,17.489032597,17.50913436,588041,5847,0.00994318423375241,-4.61086796416537
"3",1005,"Barbour","AL",-186,2812,10.3,12.6,-2.3,0.5,-5.7,-5.2,0.520966663,"South","Republican","adjacent","manufacturing",-85.3932129145765,31.8695888091185,17249,26.4,54.1,0.9847,12.242792457,26614,884.87577598536,21.999984528,29.591801708,106723,873,0.00818005490850145,-4.80605641585927
"4",1007,"Bibb","AL",27,2148,10.7,11.3,-0.5,0.4,1.4,1.8,0.764032203,"South","Republican","metro","nonspecialized",-87.1264801385788,32.9986341529285,18988,16.5,25.2,0.5737,10.206252586,22572,622.582354893018,19.114199885,19.439724157,76037,1035,0.0136117942580586,-4.29681863720509
"5",1009,"Blount","AL",55,489,11.3,11.4,-0.1,0.1,1,1.1,0.893348445,"South","Republican","metro","nonspecialized",-86.5673834130292,33.98087819855,21033,16.5,12.3,0.4986,13.360759494,57704,644.80650802125,19.20867197,21.745292814,164754,1435,0.00870995544872962,-4.74328860308722
"6",1011,"Bullock","AL",-73,1663,10.8,10.8,0,-0.1,-7.1,-7.2,0.242038217,"South","Republican","adjacent","manufacturing",-85.7156862699383,32.1005343779333,17909,26.9,78.3,0.9363,11.440376122,10552,622.805358527872,22.894664011,30.999101851,80000,2095,0.0261875,-3.64247308129978
"7",1013,"Butler","AL",-183,333,10.9,13.9,-3,0.9,-7.2,-6.3,0.561268896,"South","Republican","adjacent","nonspecialized",-86.6803028820603,31.7524178062516,19011,25.7,47.2,0.9166,11.186009539,20280,776.828047127664,21.765334963,27.910673184,133484,5747,0.04305384915046,-3.14530364094483
"8",1015,"Calhoun","AL",-726,2833,11.1,13.4,-2.3,0.1,-4.2,-4,0.68663296,"South","Republican","metro","government",-85.8260345892421,33.771436514234,22231,19.6,27,0.816,11.929167524,115883,605.888794766738,20.612560375,23.107733221,350092,4358,0.0124481564845812,-4.386182740563
"9",1017,"Chambers","AL",-346,458,10.6,13.2,-2.6,0.2,-7.9,-7.7,0.564244604,"South","Republican","adjacent","nonspecialized",-85.3920334889517,32.9143528740884,21532,20.3,43.3,0.8408,11.938076809,34018,596.531111636342,19.392927053,23.995473603,163735,6897,0.0421229425596238,-3.16716273281696
"10",1019,"Cherokee","AL",182,290,8.5,13.1,-4.6,-0.1,11.7,11.6,0.83415634,"South","Republican","adjacent","nonspecialized",-85.6038003875482,34.1759260075593,22544,16.4,8.1,0.419,11.172649917,25897,553.719701025162,17.498673785,20.698470599,60053,1618,0.0269428671340316,-3.61403668700984
"11",1021,"Chilton","AL",265,393,12.4,11.4,1.1,0.8,4.2,4.9,0.821002776,"South","Republican","metro","nonspecialized",-86.7188037582823,32.8478699835387,22045,20.3,19.4,0.744,13.759705874,43817,692.853435111392,20.188979064,21.185462911,159381,2407,0.0151021765455104,-4.19291640346195
"12",1023,"Choctaw","AL",-244,129,10.5,13.8,-3.4,-0.2,-15.7,-15.8,0.56308283,"South","Republican","non-metro","manufacturing",-88.2631848997968,32.0197775016724,20773,21,43.8,0.8297,11.342078708,13287,913.499979417814,18.79324829,24.863531285,49541,1969,0.039744857794554,-3.22527480990901
"13",1025,"Clarke","AL",-296,280,11.2,13.6,-2.4,-0.2,-9.8,-10,0.547924181,"South","Republican","non-metro","manufacturing",-87.8308139065017,31.6766821203951,20543,24.6,46.8,0.8233,11.926366291,24847,1238.46437984827,20.579655316,25.23508481,124137,1786,0.0143873301271982,-4.2414073119753
"14",1027,"Clay","AL",-59,255,10.8,14.1,-3.3,-0.2,-0.9,-1.1,0.791817633,"South","Republican","non-metro","manufacturing",-85.8605830724965,33.2690305969931,21115,16.7,19.7,0.5922,13.883338091,13483,603.96100138041,19.620354153,23.795917414,55756,973,0.0174510366597317,-4.04835622466377
"15",1029,"Cleburne","AL",-100,178,12.5,12.6,-0.1,-0.7,-5.7,-6.5,0.874260579,"South","Republican","adjacent","nonspecialized",-85.518813831547,33.6745195883524,19791,19.6,7.2,0.6291,13.34452371,14991,560.104248947982,18.374465772,19.284407812,36450,606,0.0166255144032922,-4.09681675136749
"16",1031,"Coffee","AL",392,498,11.5,10.9,0.6,0.7,6.4,7.1,0.764433958,"South","Republican","adjacent","nonspecialized",-85.9881591675225,31.4026522757973,25325,16.4,28.6,0.5266,11.99236659,50991,678.985651661674,17.444757594,19.425826811,157593,889,0.00564111350123419,-5.17767380366193
"17",1033,"Colbert","AL",237,474,11.4,13,-1.6,1.3,4.6,6,0.672125226,"South","Republican","metro","nonspecialized",-87.8049337147506,34.7004766900769,23318,16.5,21.1,0.4333,9.683862525,54377,592.619664012428,18.658821061,20.914454347,191904,2803,0.0146062614640654,-4.22630497480345
"18",1035,"Conecuh","AL",-225,45,10.1,14.9,-4.8,0.1,-13.7,-13.6,0.519362187,"South","Republican","non-metro","nonspecialized",-86.9936783666157,31.429239748367,16004,32.5,49.3,0.8628,12.033455306,12697,850.156471785916,21.107512965,28.608747789,61915,1431,0.023112331422111,-3.76738897609275
"19",1037,"Coosa","AL",20,196,8.4,11.5,-3.1,1.2,3.9,5.2,0.64375476,"South","Republican","adjacent","manufacturing",-86.2476572937147,32.9362495116424,18080,15.3,35,0.772,13.026201416,10864,650.926090743856,20.399965623,24.919103283,20992,404,0.0192454268292683,-3.95048181378267
"20",1039,"Covington","AL",96,575,11.2,14.7,-3.5,-0.1,6.4,6.2,0.832308657,"South","Republican","adjacent","nonspecialized",-86.4512771459695,31.2484986581257,21738,19,16.5,0.695,12.103617686,37729,1030.45583624492,19.249451541,22.668806251,153211,3158,0.0206120970426405,-3.88187714046201
"21",1041,"Crenshaw","AL",-53,132,9.9,13,-3,0.2,-1,-0.8,0.72012127,"South","Republican","adjacent","manufacturing",-86.3135790093729,31.7315375353875,20455,18.2,29.1,0.7014,12.267525036,13896,608.839526791866,18.646929565,22.146936238,59229,2636,0.0445052254807611,-3.11214867016994
"22",1043,"Cullman","AL",350,1027,11.8,12.6,-0.7,0.4,4.5,5,0.871042695,"South","Republican","adjacent","nonspecialized",-86.8675825749094,34.1319499964658,21041,17.1,7.5,0.4909,12.658246768,81316,734.897489233182,17.901071221,21.786493693,218590,2018,0.00923189532915504,-4.68509090711049
"23",1045,"Dale","AL",29,941,13.2,11.1,2.1,0.4,-1.8,-1.4,0.736465945,"South","Republican","adjacent","manufacturing",-85.6110090405247,31.4318149499692,22834,20.5,29.8,0.7463,9.6988639182,49607,561.125964029544,20.057394929,23.433107031,151590,4214,0.0277986674582756,-3.58276719258993
"24",1047,"Dallas","AL",-1098,853,11.6,14.4,-2.8,0.1,-26.5,-26.4,0.30805662,"South","Republican","adjacent","manufacturing",-87.1064720778568,32.325976007532,17611,34.3,71.9,0.9586,10.372407688,41426,978.694136870338,24.088991007,29.826897822,220730,3228,0.0146242015131609,-4.22507748474542
"25",1049,"De Kalb","AL",106,782,11.1,11.5,-0.3,0.6,1.3,1.9,0.828815922,"South","Republican","adjacent","manufacturing",-85.8041138637093,34.4598061323521,18685,19.8,19,0.751,17.319033941,70937,777.09371735013,21.028270793,25.958981492,300034,2497,0.0083223901291187,-4.78880579027016
"26",1051,"Elmore","AL",198,4147,11.5,10.1,1.4,0.3,0.8,1.1,0.741653247,"South","Republican","metro","nonspecialized",-86.1491639423542,32.5966528384219,24771,14.3,26.3,0.5415,8.6557164469,80957,618.487733530468,17.45250185,18.633862824,310303,5924,0.0190910174893572,-3.95853734306521
"27",1053,"Escambia","AL",109,2472,11.5,13,-1.5,0,4.5,4.5,0.669248905,"South","Republican","adjacent","nonspecialized",-87.1615837041193,31.1261417372159,17420,25.2,39.4,0.8637,14.428344867,37875,945.080053506914,22.412584583,26.054891893,172274,2871,0.0166653122351603,-4.09442583141474
"28",1055,"Etowah","AL",-343,2085,11.5,14.5,-3,0.4,-0.6,-0.2,0.732564985,"South","Republican","metro","nonspecialized",-86.0347632602892,34.045265538097,21287,18.4,21.6,0.7335,12.46599573,103363,535.28392666665,20.147398601,21.483864058,380369,5538,0.0145595461249471,-4.22950840943663
"29",1057,"Fayette","AL",-143,291,10.6,13.7,-3.1,0.3,-5.9,-5.6,0.813674385,"South","Republican","adjacent","nonspecialized",-87.7388663868369,33.7212302642574,20201,17.3,14.8,0.7217,11.459956373,16783,627.68342872507,18.001593256,22.19934392,45241,945,0.0208881324462324,-3.86857410682447
"30",1059,"Franklin","AL",64,272,13.8,11.7,2.1,0.9,-0.9,0,0.786212625,"South","Republican","adjacent","manufacturing",-87.8437398551369,34.4416987415131,18193,22.3,21.9,0.9195,15.3034504,31573,633.816619612666,19.250583044,25.368021469,230371,3594,0.0156009219910492,-4.16042526448276
"31",1061,"Geneva","AL",-35,229,10.6,13.9,-3.3,-0.3,2.4,2.1,0.849974485,"South","Republican","metro","nonspecialized",-85.8390912462457,31.0950591970446,20189,22.8,15.9,0.8173,14.07272901,26765,574.40810371854,20.003603276,23.084669296,63949,463,0.00724014449014058,-4.92811411558192
"32",1063,"Greene","AL",-98,45,11.8,11.4,0.4,0,-12.4,-12.4,0.171721311,"South","Republican","adjacent","nonspecialized",-87.9522131020639,32.8531567358996,13679,37.9,82.9,0.9882,11.446345257,8587,647.104523804522,24.632818706,33.985155643,42985,1967,0.0457601488891474,-3.08434167821949
"33",1065,"Hale","AL",-98,221,12.9,12.3,0.6,-0.2,-7,-7.2,0.394651741,"South","Republican","metro","nonspecialized",-87.6291511506437,32.7626697338447,19296,25.9,60,0.9793,10.560162464,15159,643.942685491568,22.077291339,27.902570328,83811,3989,0.047595184403002,-3.04502369086675
"34",1067,"Henry","AL",32,199,9.7,12.4,-2.7,-0.1,4.6,4.5,0.697720515,"South","Republican","metro","nonspecialized",-85.2414182671998,31.5147100821191,22825,15.3,31.4,0.596,12.187736563,17187,561.75007590473,18.429845441,21.419262062,57364,709,0.0123596680845129,-4.39331668131698
"35",1069,"Houston","AL",1112,1415,12.4,10.8,1.6,0.1,8.9,9,0.7206548,"South","Republican","metro","nonspecialized",-85.3024767547949,31.1532056661362,24086,18.9,32.5,0.6819,11.070223497,103891,579.86611301941,19.249782785,20.269797095,307247,2855,0.00929219813374907,-4.6785801412547
"36",1071,"Jackson","AL",5,597,10.9,13.1,-2.2,-0.1,2.5,2.3,0.794510103,"South","Republican","adjacent","manufacturing",-85.9993509729766,34.7794728354736,20487,18.8,10.5,0.5788,13.050941708,52608,1077.86697766591,19.958920884,23.244761808,175481,1394,0.00794387996421265,-4.83535346259856
"37",1073,"Jefferson","AL",-856,16663,12.8,11.1,1.6,0.7,-3.6,-2.9,0.443037434,"South","Republican","metro","nonspecialized",-86.8964957084218,33.554319742462,28162,18.1,49.3,0.6409,10.049484847,659096,1111.28808802193,17.622045263,19.696302144,2214688,43923,0.0198325904145415,-3.92042871389058
"38",1075,"Lamar","AL",-77,217,11.5,12.4,-0.9,-0.1,-4.6,-4.7,0.835917313,"South","Republican","adjacent","manufacturing",-88.0969592328537,33.7791478450799,20206,23.9,13.9,0.6804,11.531698288,14066,604.846018207178,20.430552004,24.255310984,40603,323,0.00795507721104352,-4.83394491126293
"39",1077,"Lauderdale","AL",125,2280,9.5,12.3,-2.8,0.4,3.8,4.2,0.705857052,"South","Republican","metro","nonspecialized",-87.6540149813345,34.9014132850946,24893,18.3,15,0.5396,11.285158773,92641,667.69934695616,16.6560043,20.125833414,200985,3468,0.017255019031271,-4.05965221949039
"40",1079,"Lawrence","AL",-17,229,10.6,13,-2.4,-0.1,2.1,2,0.730528019,"South","Republican","metro","manufacturing",-87.3109941458565,34.5216828660879,21911,18.3,23.3,0.4858,14.028629857,33433,690.677152269394,20.18764616,21.833803124,67385,1649,0.024471321510722,-3.71025339764366
"41",1081,"Lee","AL",886,4913,11.1,6.9,4.2,1.8,-0.7,1.2,0.584835532,"South","Republican","metro","government",-85.3554754125552,32.6011520958516,24951,23,32.1,0.5989,10.350184992,153947,607.551704420374,17.560140407,21.463907829,607405,9314,0.0153340851655814,-4.17767713982529
"42",1083,"Limestone","AL",2738,2648,10.4,8.9,1.5,0.3,26.1,26.4,0.721372909,"South","Republican","metro","government",-86.9814061176911,34.8101055627959,26086,14.1,22.6,0.5269,11.014042165,90257,559.93919767892,18.173356594,20.11404561,236650,2213,0.0093513627720262,-4.67223319528334
"43",1085,"Lowndes","AL",-248,96,11.8,14.3,-2.5,-0.1,-22.6,-22.7,0.261968881,"South","Republican","metro","manufacturing",-86.650102951271,32.1547538945184,18434,28.7,75.6,0.8908,10.822831727,10565,715.911166627442,22.615911188,30.355910546,95245,4081,0.0428473935639666,-3.15011046276699
"44",1087,"Macon","AL",-253,1597,9.5,14.5,-5.1,0.1,-8.9,-8.8,0.156564551,"South","Republican","adjacent","government",-85.6926570325556,32.3859650550022,18385,25.5,84.6,0.9023,10.554682237,19684,608.907934027614,21.414696395,29.863338128,58809,2353,0.0400108826880239,-3.21860379467117
"45",1089,"Madison","AL",5905,8940,11.5,8.9,2.5,0.6,12.8,13.4,0.547894901,"South","Republican","metro","government",-86.550230730226,34.7630964591462,33264,13.3,34.6,0.3034,9.4393471314,349973,801.608401288262,16.820172701,19.257825328,856009,7646,0.00893214907787184,-4.71809825483094
"46",1091,"Marengo","AL",-193,254,11,14.6,-3.5,0.2,-6.8,-6.6,0.475986902,"South","Republican","non-metro","nonspecialized",-87.7895430742731,32.2476712356044,20359,27.8,54.5,0.8937,9.7974289053,20066,976.88142504613,21.356000347,26.241737437,96626,2703,0.027973837269472,-3.57648558884821
"47",1093,"Marion","AL",-41,735,10.2,13.6,-3.5,0.1,2.1,2.2,0.868299445,"South","Republican","non-metro","manufacturing",-87.8871385572087,34.1365641231201,20998,18.6,8,0.6256,11.408083442,30239,742.291704310756,19.060203607,22.256504668,107695,4019,0.0373183527554668,-3.28827004236225
"48",1095,"Marshall","AL",604,1045,14.5,12,2.5,0.7,3.1,3.8,0.827755125,"South","Republican","adjacent","manufacturing",-86.3066442788053,34.3669625649157,21767,20.5,17.7,0.7876,15.643576987,94534,565.841785285996,21.017853481,22.394653056,496887,5385,0.0108374741138327,-4.52474532545201
"49",1097,"Mobile","AL",-698,7390,13.2,11.1,2.1,0.6,-4.4,-3.8,0.550640569,"South","Republican","metro","nonspecialized",-88.2064769202696,30.7915214474844,23318,19.5,42.1,0.787,11.719890151,414291,1229.39947670617,19.369969149,22.399091396,1619077,39636,0.0244806145723767,-3.70987371657239
"50",1099,"Monroe","AL",-329,230,9.5,13.3,-3.8,-0.1,-11.9,-12,0.564209911,"South","Republican","non-metro","manufacturing",-87.3654355258009,31.5708847401232,16556,32.1,45.3,0.7491,12.789735099,21975,1025.6869896703,23.257538963,30.016195849,70089,1019,0.0145386579919816,-4.23094410879934
"51",1101,"Montgomery","AL",-18,9302,13.5,9.6,3.9,1.4,-5.5,-4,0.354648616,"South","Republican","metro","government",-86.2076234130588,32.2202691815894,26255,21.3,64.1,0.8093,11.005422221,227392,784.363117234164,19.68315291,23.875086222,1112524,23943,0.0215213334723565,-3.83871058127943
"52",1103,"Morgan","AL",476,2002,11.7,11,0.7,0.9,2.4,3.3,0.740186399,"South","Republican","metro","manufacturing",-86.8529474423102,34.4534749886009,24415,16.3,23.4,0.7192,11.560252216,119555,579.359492755028,18.855706149,20.554282339,392358,3015,0.00768430871805851,-4.86857485814441
"53",1105,"Perry","AL",-147,709,10.6,13.4,-2.9,0.2,-13.8,-13.6,0.266578249,"South","Republican","adjacent","nonspecialized",-87.2944118630526,32.6384681745508,14033,39.8,70.4,1,11.480988312,9856,719.663221693206,26.003088568,35.429054078,64705,585,0.00904103237771424,-4.70598191002391
"54",1107,"Pickens","AL",-50,1878,10.3,11.8,-1.5,0.7,-1.7,-1,0.571787885,"South","Republican","metro","nonspecialized",-88.0887563547337,33.2808008318267,19188,23.9,45.1,0.9379,11.607203534,20042,881.429883589312,21.199123041,26.593264751,79243,1845,0.0232828136239163,-3.76003980328804
"55",1109,"Pike","AL",-128,2204,10.4,10.2,0.2,2.4,-6.3,-3.9,0.58421932,"South","Republican","adjacent","government",-85.9409376335061,31.802733152114,20180,25.7,43.4,0.9153,12.916650758,33277,672.103662277318,20.604656176,24.554163207,137445,1247,0.00907271999708975,-4.70248317038739
"56",1111,"Randolph","AL",-5,390,11.2,12.5,-1.4,-0.3,1.5,1.2,0.75635614,"South","Republican","adjacent","nonspecialized",-85.459133229405,33.29379107876,19584,20.6,24.6,0.8029,13.227662455,22615,580.5491834422,18.998357528,21.389294498,78492,2110,0.0268817204301075,-3.6163087612791
"57",1113,"Russell","AL",177,574,14,10.5,3.5,-0.8,0.4,-0.4,0.47829248,"South","Republican","metro","manufacturing",-85.1849287909993,32.2884021180542,20760,21.5,51.3,0.8892,11.304654005,58636,641.153584643986,21.791319835,25.463148765,205553,245,0.00119190671019153,-6.73220097666385
"58",1115,"St Clair","AL",858,1582,11,10.9,0.1,0.3,9.3,9.6,0.824244792,"South","Republican","metro","nonspecialized",-86.3147091591381,33.7156992671048,24474,13.7,13.7,0.3289,10.041068328,86576,631.904267603624,18.335301284,19.272571246,249741,3441,0.0137782742921667,-4.28466225402797
"59",1117,"Shelby","AL",2119,2416,10.3,7.5,2.8,0.6,6.4,7,0.721156695,"South","Republican","metro","nonspecialized",-86.6606694053854,33.2642846545185,34117,8.5,21.1,0.1073,7.8591340516,205951,785.368628000888,15.561157468,16.489439968,645839,7130,0.0110399031337531,-4.50623901228824
"60",1119,"Sumter","AL",-207,916,10.9,13,-2.2,2.2,-16.5,-14.4,0.246607394,"South","Republican","adjacent","government",-88.1988513022031,32.5910611286449,13929,36.7,75.4,0.9748,11.362216205,13285,903.88905237172,22.491914972,33.63301606,64328,2808,0.0436512871533391,-3.13152250908228
"61",1121,"Talladega","AL",-159,3095,10.5,13,-2.5,0.4,0.2,0.6,0.617056306,"South","Republican","adjacent","manufacturing",-86.1658909132268,33.3800873463698,20430,20.8,36.5,0.8841,10.302041075,81057,736.776876239566,23.159862261,23.197124311,224231,3080,0.0137358349202385,-4.28774717349656
"62",1123,"Tallapoosa","AL",-168,576,9.5,13.2,-3.7,0,-0.4,-0.4,0.697629067,"South","Republican","adjacent","nonspecialized",-85.797502995923,32.8623836489401,21410,23.4,30.9,0.9093,11.904836931,40958,716.5202923396,18.180067185,22.847306752,162924,14271,0.0875929881417103,-2.43505432828789
"63",1125,"Tuscaloosa","AL",1036,9954,11.6,9,2.7,1.1,1.2,2.3,0.577061669,"South","Republican","metro","government",-87.5251153607843,33.2895782353836,23896,18,37,0.6253,9.3086830807,202471,1321.6766249713,17.872632402,20.262329983,878694,13527,0.0153944376540639,-4.17374902610239
"64",1127,"Walker","AL",-148,852,11.8,15.2,-3.4,0,1.2,1.2,0.823357763,"South","Republican","metro","nonspecialized",-87.2973326927355,33.8033167310492,20410,21.9,10.4,0.78,11.670766468,65593,791.193290571814,22.68098456,24.371718875,279108,9479,0.0339617639050117,-3.38251997822203
"65",1129,"Washington","AL",-76,147,10.1,11.7,-1.6,0.9,-4,-3.1,0.708074534,"South","Republican","adjacent","manufacturing",-88.2078622066998,31.4076346187676,19598,21.6,34.9,0.7364,13.909465021,16909,1080.20616620815,20.790092076,23.040858822,65570,1830,0.0279091047735245,-3.5788023074222
"66",1131,"Wilcox","AL",-226,108,12.7,15.4,-2.8,0,-18.8,-18.8,0.283916313,"South","Republican","non-metro","manufacturing",-87.3081999788081,31.9893103033129,14800,34.9,72.6,0.8711,10.518884575,11119,888.49790502541,22.066630151,29.441866053,72206,1734,0.0240146248234219,-3.72909226658068
"67",1133,"Winston","AL",-64,301,10.3,13.7,-3.5,0.1,0.7,0.8,0.89479298,"South","Republican","adjacent","manufacturing",-87.3736692212495,34.1492042514065,19299,20.6,5.7,0.7421,12.772754345,24013,612.978980002044,19.647968099,21.431419816,84498,1401,0.0165802740893276,-4.0995415980891
"68",4001,"Apache","AZ",156,956,13,9.8,3.2,0.5,-1.6,-1,0.297892339,"South","Republican","adjacent","government",-109.488833225248,35.3955303898734,13428,36.2,81.4,0.9885,19.17271189,72346,11197.4595094322,21.513107022,25.951201969,519545,21256,0.0409127217084179,-3.19631422008201
"69",4003,"Cochise","AZ",-489,4436,10.7,10.4,0.3,0.5,-4.7,-4.2,0.561671499,"South","Republican","metro","government",-109.751176250007,31.879613428879,23757,18.9,43.7,0.9303,10.456419859,128177,6164.57234502477,14.99584566,18.069448591,232012,7586,0.0326965846594142,-3.42048465119989
"70",4005,"Coconino","AZ",953,13646,10.6,6.3,4.3,0.2,2.2,2.4,0.353071056,"South","Republican","metro","government",-111.770511343045,35.8387457190252,24711,22.2,45.4,0.7638,13.11674912,138064,18618.656268515,15.990186028,15.884514142,542929,21669,0.0399112959521411,-3.22109588858347
"71",4007,"Gila","AZ",217,908,9.5,15,-5.5,0.2,9.3,9.5,0.386462109,"South","Republican","adjacent","recreation",-110.811716270363,33.7997525056345,21470,21.2,36.8,0.9115,13.477246208,53179,4757.99089642692,17.628104734,18.669721673,151219,5824,0.0385136788366541,-3.25674180633198
"72",4009,"Graham","AZ",842,2922,13.7,8.4,5.3,0.8,15.8,16.6,0.395203388,"South","Republican","non-metro","government",-109.887408510498,32.9327047295035,17710,22.5,48.5,0.9653,10.018351118,37529,4622.70276760444,17.53449299,18.914279632,92170,2485,0.0269610502332646,-3.61336203845698
"73",4011,"Greenlee","AZ",50,34,15.2,5.2,10,0.8,-5.5,-4.6,0.36440678,"South","Republican","non-metro","mining",-109.240143515106,33.2152267537358,23778,13.4,52.2,0.6288,8.6147821831,9224,1841.97723340949,14.269949853,17.865416233,8134,266,0.0327022375215146,-3.42031177768547
"74",4012,"La Paz","AZ",69,374,9.1,14.7,-5.6,3.2,5.8,9.1,0.672660057,"South","Republican","adjacent","recreation",-113.981306519609,33.7292868666155,21447,21.1,41.1,0.9169,19.76077339,20304,4499.62520333543,15.521010202,22.005996712,73861,1849,0.0250335088883172,-3.68753999605586
"75",4013,"Maricopa","AZ",83011,67191,11.9,7.4,4.4,1.2,12.9,14.2,0.476683756,"South","Republican","metro","nonspecialized",-112.491306412054,33.3488125404232,28791,16.5,43.1,0.6469,12.081175995,4088549,9199.18765746298,13.686398251,15.622654225,17440670,376581,0.0215921177340091,-3.83542695061322
"76",4015,"Mohave","AZ",2889,4762,8.3,16,-7.7,-1.2,22.4,21.2,0.729044444,"South","Republican","metro","recreation",-113.757964679534,35.7041030891727,22026,19.3,21.7,0.9102,13.362976831,203629,13311.0853740811,19.352843037,18.912272625,469409,27084,0.0576980841867114,-2.85253130902258
"77",4017,"Navajo","AZ",682,1922,13.1,10.1,3,0.4,2.8,3.2,0.510671564,"South","Republican","adjacent","recreation",-110.321412545931,35.3996639831384,16564,29.9,58.1,0.9946,15.120113587,108209,9949.88494015215,20.611978362,24.284684904,841108,31158,0.0370439943503094,-3.2956490361871
"78",4019,"Pima","AZ",10725,24751,10.5,9.8,0.7,1.2,8.4,9.6,0.397087563,"South","Republican","metro","nonspecialized",-111.789905718709,32.0974299148962,26204,19.1,46.7,0.8717,10.86259278,1003338,9187.21027033208,14.916461188,17.160990512,2908453,81674,0.0280815952673122,-3.57264088992427
"79",4021,"Pinal","AZ",15983,25918,10,7.3,2.7,1.1,31.2,32.2,0.562109212,"South","Republican","metro","nonspecialized",-111.344681591056,32.9043969302388,21982,16.5,42.1,0.8593,11.027964753,397604,5365.84584419979,16.274473498,20.091217453,1276238,24592,0.0192691331867567,-3.94925078009191
"80",4023,"Santa Cruz","AZ",103,474,13.3,6.8,6.5,1.2,-5.5,-4.3,0.23714477,"South","Republican","adjacent","government",-110.846600658826,31.5260312010517,18860,21.9,84.7,0.915,13.993283224,46547,1236.9214826654,14.571449262,26.579217588,384300,7332,0.0190788446526151,-3.95917516759334
"81",4025,"Yavapai","AZ",3327,4140,7.6,13,-5.4,-0.3,19.9,19.6,0.62324159,"South","Republican","metro","recreation",-112.553912659859,34.5999012771725,26584,14.7,18.8,0.5457,12.924381971,218586,8123.50744415007,17.065330071,15.400511422,304958,9179,0.0300992267787695,-3.50325579597023
"82",4027,"Yuma","AZ",2175,9459,14.1,8.1,6,2.6,1.7,4.2,0.474721751,"South","Republican","metro","recreation",-113.905597067593,32.7694301082438,19483,20.5,67.3,0.9898,14.199480988,203292,5514.02522459087,13.32703585,22.726376366,1628349,39330,0.02415329883213,-3.72333431060843
"83",5001,"Arkansas","AR",-240,247,11.7,12.3,-0.6,-0.2,-13,-13.2,0.615904701,"South","Republican","adjacent","manufacturing",-91.3749171644414,34.290815288302,23287,19.6,29.6,0.7771,8.9244531414,18569,988.800869077692,20.0832304,23.123405671,43798,697,0.0159139686743687,-4.14055802246101
"84",5003,"Ashley","AR",-355,191,10.7,12.7,-1.9,-0.2,-15.8,-16,0.660398367,"South","Republican","non-metro","manufacturing",-91.7684630266682,33.1912166170293,20290,19.9,32,0.7692,9.2027221078,20989,925.34821542972,20.452066927,24.022563465,47919,964,0.020117281245435,-3.90617606984752
"85",5005,"Baxter","AR",308,595,8.4,16.6,-8.3,0,15.7,15.7,0.742790651,"South","Republican","non-metro","nonspecialized",-92.3369536481037,36.2872147381421,23068,13.8,4.8,0.306,8.3837602026,40992,554.283406856346,16.242815884,18.946243722,33335,290,0.00869956502174891,-4.74448225207164
"86",5007,"Benton","AR",6875,2081,13.6,6.6,7,0.4,17.5,17.9,0.628676774,"South","Republican","metro","nonspecialized",-94.2562056794089,36.3387301991844,28996,11.4,25.3,0.2677,10.426607884,245231,847.481654041518,16.513156719,16.233360057,789040,8657,0.0109715603771672,-4.5124487744121
"87",5009,"Boone","AR",47,465,10.9,12.3,-1.4,-0.3,3,2.8,0.75941903,"South","Republican","non-metro","nonspecialized",-93.0915400605962,36.3085968435502,21719,17.5,5.7,0.5731,8.6164801628,37301,590.33078031366,19.902994421,21.217831003,62320,1351,0.0216784338896021,-3.83143734258443
"88",5011,"Bradley","AR",-75,227,10.7,12,-1.3,-0.5,-5.2,-5.6,0.592389817,"South","Republican","non-metro","nonspecialized",-92.1623958254125,33.4664252173498,20465,28.8,43.5,0.9924,11.556740466,11096,649.236101054246,21.76763047,28.442057219,34335,778,0.0226590942187272,-3.78719399687639
"89",5013,"Calhoun","AR",-38,175,7.5,9.2,-1.7,-0.2,-5.4,-5.6,0.685764654,"South","Republican","non-metro","manufacturing",-92.5030500938852,33.5580367601381,21093,19.2,27.1,0.5683,8.3375570198,5210,628.564011170368,20.624855656,23.975528912,3352,0,0,-Inf
"90",5015,"Carroll","AR",283,230,10.7,10.8,-0.1,0.9,9.4,10.3,0.630786392,"South","Republican","adjacent","manufacturing",-93.5382463857737,36.3410250419993,20888,17.5,18.9,0.6826,12.77965783,27690,629.979382723662,18.372733646,22.022769181,74648,1221,0.0163567677633694,-4.11311353680315
"91",5017,"Chicot","AR",-324,769,10.8,14.6,-3.8,-0.2,-27.5,-27.7,0.41091954,"South","Republican","non-metro","farming",-91.2939840753232,33.2672178533189,18853,30.9,60.9,0.9975,8.9078233927,11189,644.309824864042,23.103409519,30.052423775,103661,1702,0.0164189039272243,-4.10932192948648
"92",5019,"Clark","AR",7,2986,10.4,10.8,-0.4,0.1,0.6,0.7,0.51653765,"South","Republican","non-metro","government",-93.17637292882,34.0509843164184,19500,24,30.6,0.8714,7.2066968781,22684,866.07388272196,19.33947371,23.742513205,38242,347,0.00907379321165211,-4.70236488710605
"93",5021,"Clay","AR",-212,125,10.6,13.4,-2.9,0,-11.6,-11.6,0.727115385,"South","Republican","non-metro","farming",-90.4175555476246,36.3682702016516,19192,22.2,4,0.6507,8.6579335473,15202,639.4476149648,20.333190979,22.553831362,31419,893,0.0284222922435469,-3.56058150356476
"94",5023,"Cleburne","AR",-75,339,9.1,15.4,-6.3,-0.2,3.6,3.4,0.782623086,"South","Republican","adjacent","recreation",-92.0267314995223,35.538106674756,25078,15.5,5,0.3706,9.1217696014,25587,553.690253025622,17.409398052,20.06844482,43174,1408,0.0326122203177839,-3.42306820447683
"95",5025,"Cleveland","AR",-39,52,9.4,11,-1.6,-0.1,-3.1,-3.3,0.734048897,"South","Republican","metro","nonspecialized",-92.1851923158862,33.8983736073835,21485,20,15.3,0.6323,8.8858195212,8421,597.783407604508,19.038559786,22.0305959,19148,798,0.0416753707959056,-3.17784495306259
"96",5027,"Columbia","AR",-129,2161,11.1,11.9,-0.7,0.4,-5.1,-4.7,0.61393046,"South","Republican","non-metro","manufacturing",-93.2273208531295,33.2142958999891,19922,24.9,40.8,0.9236,8.2783138649,24168,766.06715195426,20.476424943,26.520424178,48739,1855,0.0380598699193664,-3.26859483489805
"97",5029,"Conway","AR",21,285,10.9,10.2,0.7,-0.2,0.7,0.4,0.611706825,"South","Republican","adjacent","nonspecialized",-92.7013027388949,35.2622500871161,21896,21.5,18.2,0.7778,8.5021946967,21060,552.256504947638,19.000933819,22.154074123,29095,521,0.0179068568482557,-4.0225715753374
"98",5031,"Craighead","AR",1516,3837,13.3,9.4,3.9,0.4,9.5,10,0.643521772,"South","Republican","metro","nonspecialized",-90.6328394759117,35.8307971158225,24226,18.9,22,0.7593,7.9404688636,102884,707.27971124309,20.762920838,22.717330723,309913,2666,0.00860241422592792,-4.75571239117316
"99",5033,"Crawford","AR",-122,540,12,10.4,1.6,0.1,-3.6,-3.5,0.74325167,"South","Republican","metro","manufacturing",-94.2428293414366,35.5890913358138,20889,18.8,14.5,0.6606,9.8941616995,61927,591.177170724144,19.004177141,20.108698295,140171,1483,0.0105799345085645,-4.54879604268792
"100",5035,"Crittenden","AR",-408,1053,15,11.1,3.9,-0.1,-12.3,-12.4,0.436559679,"South","Republican","metro","nonspecialized",-90.3088439188398,35.207948927045,20133,24.6,56.3,0.9217,7.9887379116,49511,610.329484757316,23.311338002,25.870442919,239397,4932,0.0206017619268412,-3.88237867641494
"101",5037,"Cross","AR",-211,225,11.7,12.5,-0.8,0.1,-12.2,-12.1,0.666860634,"South","Republican","adjacent","nonspecialized",-90.7712209944472,35.2957175959539,20692,19.8,26.8,0.7408,8.8189674274,17329,616.380332443576,20.48800941,23.667438515,45457,1098,0.0241546956464351,-3.72327648107853
"102",5039,"Dallas","AR",-143,401,10.3,11.2,-0.8,-0.3,-18.8,-19.1,0.544568748,"South","Republican","adjacent","nonspecialized",-92.6544504905849,33.9698171951334,17803,14.7,46.7,0.8641,8.0890538033,7738,667.386000858734,19.211906124,22.724611879,14382,307,0.0213461271033236,-3.84688495607524
"103",5041,"Desha","AR",-146,56,11.8,15,-3.2,-0.1,-9.4,-9.5,0.450786939,"South","Republican","adjacent","nonspecialized",-91.2539886628755,33.833290662662,17324,32,54.1,0.9411,9.5309168443,12234,768.145018554764,24.25184846,31.97991039,32959,533,0.0161716071482751,-4.12449821959148
"104",5043,"Drew","AR",-109,895,12.5,10.8,1.6,-0.3,-7.3,-7.6,0.60166793,"South","Republican","adjacent","government",-91.7200035153758,33.5894505585918,18373,27.7,32.9,0.8523,8.4215625216,18688,828.353520804402,20.831699776,25.466292777,37746,676,0.0179091824299264,-4.02244171275512
"105",5045,"Faulkner","AR",869,4407,12.1,7.3,4.7,0.3,1.8,2.2,0.617459549,"South","Republican","metro","nonspecialized",-92.3320498604909,35.146988913006,24809,16.1,18.7,0.4317,7.9798883958,120417,647.91211173621,20.535015324,20.651997468,260519,2072,0.00795335464975683,-4.8341614707967
"106",5047,"Franklin","AR",-49,447,10,10.7,-0.7,-0.1,-1.9,-2,0.744313146,"South","Republican","adjacent","nonspecialized",-93.8906448540336,35.5123257753256,19811,21.1,7.4,0.652,9.4372475275,17799,608.857717987596,21.150183953,21.811707435,29957,234,0.00781119604766832,-4.85219718374841
"107",5049,"Fulton","AR",169,165,10.8,16.2,-5.4,0.4,18.7,19.1,0.72736798,"South","Republican","non-metro","nonspecialized",-91.8182227500915,36.3816685556085,19082,23.2,4.3,0.6673,9.5882620564,12186,618.193114538348,20.012115075,22.386930549,16123,351,0.0217701420331204,-3.82721587949787
"108",5051,"Garland","AR",420,2165,10.8,13.6,-2.8,-0.3,7.3,7,0.639308908,"South","Republican","metro","recreation",-93.1504172260916,34.5766739463167,24602,20.6,17.1,0.8338,9.8247843604,97119,677.813948308376,19.415844716,19.986587977,197828,4280,0.0216349556180116,-3.83344495670505
"109",5053,"Grant","AR",85,143,9.4,10.3,-0.9,-0.3,5.9,5.5,0.768972465,"South","Republican","metro","nonspecialized",-92.4236172931103,34.2900054136019,24696,13,6.9,0.2423,6.0703517588,18046,631.81096914414,18.222245823,20.228554588,27965,178,0.00636509923118183,-5.0569254569636
"110",5055,"Greene","AR",-14,602,12.9,11.1,1.8,-0.2,-1.9,-2.1,0.734246575,"South","Republican","adjacent","manufacturing",-90.5589848197642,36.1175728084213,21643,17.7,5.8,0.4247,7.0139960619,43745,577.688057197028,19.622216775,20.034219944,96431,913,0.00946790969708911,-4.65984712507243
"111",5057,"Hempstead","AR",-153,301,13.5,10.8,2.7,-0.6,-9.2,-9.8,0.624343879,"South","Republican","adjacent","nonspecialized",-93.6684845709298,33.7353295296054,17813,26.7,44.6,0.9752,10.76914357,22208,727.519965345068,22.176658181,26.767114539,42703,488,0.0114277685408519,-4.47170904850686
"112",5059,"Hot Spring","AR",99,2332,10.7,11.2,-0.5,0,3.5,3.5,0.6841929,"South","Republican","adjacent","nonspecialized",-92.9459475877061,34.3176353515971,20522,17,17,0.6281,7.6132015306,33440,615.206993948308,20.333526847,20.161343444,222641,2428,0.0109054486819588,-4.51849273556617
"113",5061,"Howard","AR",-100,181,13,12.9,0.1,-0.2,-7.5,-7.6,0.675438596,"South","Republican","adjacent","manufacturing",-93.9934896288762,34.0887764547187,22587,19.6,34.6,0.8994,11.598574171,13487,588.566256721766,21.855604946,26.394572298,52994,886,0.0167188738347737,-4.09121702797355
"114",5063,"Independence","AR",57,966,13.6,11.4,2.2,-0.2,-0.4,-0.6,0.729836933,"South","Republican","non-metro","manufacturing",-91.5697150144517,35.74157916131,22035,19.2,10.7,0.7619,8.1407267798,37030,763.953374006736,19.872211004,22.985249998,103870,1953,0.0188023490902089,-3.97377346534518
"115",5065,"Izard","AR",47,1002,8.7,13.8,-5.1,0.1,8.3,8.5,0.741923642,"South","Republican","non-metro","government",-91.9134194255216,36.094882304796,18964,22,4.4,0.6377,10.390170295,13461,580.575715213334,19.661089295,20.424630773,26025,121,0.00464937560038425,-5.37102234788643
"116",5067,"Jackson","AR",-34,2210,11.2,12.3,-1.1,-0.1,-0.7,-0.8,0.633630721,"South","Republican","adjacent","government",-91.2145581906092,35.5992805792811,18316,27.1,22.6,0.858,8.7250021095,17495,633.936540191152,22.098124353,25.456038602,37795,244,0.0064558804074613,-5.04276387243308
"117",5069,"Jefferson","AR",-1243,5424,11.7,12.3,-0.6,0.1,-18,-17.9,0.357225612,"South","Republican","metro","government",-91.9315191999373,34.2687893239905,19691,25.5,60.1,0.9408,7.2345256191,72385,870.745145877102,21.331822966,25.737283487,343471,9226,0.0268610741518207,-3.61707709792639
"118",5071,"Johnson","AR",-81,690,12.2,9.5,2.8,-0.2,-5.6,-5.8,0.668459175,"South","Republican","non-metro","manufacturing",-93.4599019096451,35.5700749580525,18871,21.4,18.9,0.8013,10.567369301,26025,659.889733617132,20.752465241,24.322376912,100115,501,0.00500424511811417,-5.29746870314189
"119",5073,"Lafayette","AR",-55,105,9.2,14.1,-5,-0.2,-3,-3.2,0.614685315,"South","Republican","adjacent","nonspecialized",-93.6070614134059,33.2409513659268,24171,26.4,40.7,0.8039,10.590988882,7127,528.294918302138,20.145484054,25.293873212,12083,348,0.028800794504676,-3.54735230525283
"120",5075,"Lawrence","AR",-26,663,11.8,15.2,-3.3,-0.2,1.9,1.8,0.714863676,"South","Republican","adjacent","nonspecialized",-91.107093151184,36.0412620364719,18010,23.6,4,0.7081,8.2793095368,16915,587.617090978208,19.39464182,20.94174644,53105,1921,0.0361736183033613,-3.31942520198708
"121",5077,"Lee","AR",-119,1738,9.1,13.5,-4.4,0,-9,-9,0.406146728,"South","Republican","non-metro","farming",-90.7821491820875,34.7806636934095,14292,30.1,59.3,0.9163,8.5520442778,9781,602.620955624602,24.770229015,29.158042656,138797,1598,0.0115132171444628,-4.46425958666219
"122",5079,"Lincoln","AR",-160,3547,7.6,11.1,-3.5,0.1,-8.6,-8.5,0.641662311,"South","Republican","metro","government",-91.7333354617301,33.9574492750934,12610,23.3,35.4,0.944,9.3666708973,13935,561.561551178476,22.467420691,24.863479648,279167,2302,0.00824596030333098,-4.79803185876056
"123",5081,"Little River","AR",-38,123,11.1,14.3,-3.3,-0.2,0.5,0.2,0.689688158,"South","Republican","metro","manufacturing",-94.2343535031277,33.70051747212,20237,19.4,26.9,0.6692,8.9756801319,12616,532.256161500992,21.064747174,24.336815437,35306,2053,0.058148756585283,-2.84475078313029
"124",5083,"Logan","AR",-207,579,10.9,13.7,-2.8,0.5,-7.2,-6.8,0.725413458,"South","Republican","adjacent","nonspecialized",-93.7163314349866,35.2152781991025,20340,19,8.6,0.758,9.6222131672,21935,708.119260312236,20.399456184,22.278881981,44702,164,0.00366873965370677,-5.60790709450584
"125",5085,"Lonoke","AR",-82,573,11.7,9.4,2.3,-0.2,-3.3,-3.5,0.736457565,"South","Republican","metro","nonspecialized",-91.8886697810108,34.7542846588607,24501,12.1,13.1,0.3779,7.1151847302,71279,770.929555676706,18.585972716,18.911733535,117700,1253,0.0106457094307562,-4.5425983383523
"126",5087,"Madison","AR",214,79,12.6,8.6,4,-0.3,9.2,8.9,0.72036252,"South","Republican","metro","manufacturing",-93.7245602548557,36.0109613887179,22637,18.1,9.5,0.5132,11.462059517,15761,834.25281534752,20.813868314,21.945368576,44068,342,0.00776073341199964,-4.85867843739735
"127",5089,"Marion","AR",29,141,8.5,16.7,-8.2,-0.2,10.3,10.1,0.750809061,"South","Republican","non-metro","manufacturing",-92.6842362930242,36.2683886039476,18706,19.9,5.1,0.4989,9.7206703911,16404,597.008430619944,19.92201061,19.774073123,8898,49,0.00550685547314003,-5.20176151325536
"128",5091,"Miller","AR",-105,1452,12,10.9,1.1,-0.6,-2.8,-3.5,0.70188304,"South","Republican","metro","nonspecialized",-93.8915592934458,33.3120985280613,21217,20.6,30.3,0.8411,8.0762711864,43666,625.587303747088,21.478718195,22.721385795,98537,1188,0.0120563849112516,-4.41816089122237
"129",5093,"Mississippi","AR",-585,788,14.2,12.2,2,-0.5,-15.9,-16.4,0.534762193,"South","Republican","adjacent","manufacturing",-90.0542095967973,35.7638367711463,19159,25.5,40.9,0.9204,7.565356673,44199,900.575219214936,23.644712474,27.270440358,175098,4239,0.0242092999348936,-3.72101842481153
"130",5095,"Monroe","AR",-179,84,9.9,16.8,-6.9,0,-19.6,-19.6,0.51629681,"South","Republican","non-metro","nonspecialized",-91.2039002056354,34.6778373786508,19849,28.6,45.3,0.9121,8.4918094521,7542,607.130262504314,22.240461226,28.112733004,14169,24,0.00169383866186746,-6.38075792821628
"131",5097,"Montgomery","AR",76,121,9.8,16.5,-6.7,0.4,14.9,15.3,0.742624333,"South","Republican","adjacent","recreation",-93.6594257708323,34.5389309518112,20375,18.8,8.6,0.5473,11.429461227,9100,779.880374944256,18.470426628,21.744151884,12563,443,0.0352622781182838,-3.34494149495928
"132",5099,"Nevada","AR",-56,157,12.3,12.6,-0.2,-0.4,-6.2,-6.5,0.616142945,"South","Republican","non-metro","manufacturing",-93.3072016474631,33.6639635481111,17595,30.8,36.3,0.8036,8.3602771363,8668,617.836394514446,21.285822663,25.589410117,26426,1378,0.052145614167865,-2.95371520140056
"133",5101,"Newton","AR",-47,51,10.8,13.9,-3.1,0,-2.8,-2.8,0.766053824,"South","Republican","non-metro","farming",-93.2178734856521,35.919978515674,17790,21.6,5.5,0.3639,9.6335078534,7988,820.905442181216,19.007814468,21.745638421,20836,1553,0.0745344595891726,-2.5964937157164
"134",5103,"Ouachita","AR",-238,352,10.6,14.4,-3.8,0,-6.3,-6.3,0.538600906,"South","Republican","non-metro","government",-92.8819426694903,33.5933633532991,20033,24.5,44.4,0.8816,6.9505055881,24728,732.783053753952,22.845478643,27.010479833,24921,554,0.0222302475823603,-3.8063014137599
"135",5105,"Perry","AR",75,152,11.2,13.2,-2,0.1,9.2,9.3,0.698560149,"South","Republican","metro","nonspecialized",-92.9314544036398,34.9473774884474,22474,17.8,7.7,0.4779,8.8549247938,10246,551.562132161002,18.916973608,20.414403409,10853,21,0.00193494886206579,-6.24767438072259
"136",5107,"Phillips","AR",-272,246,14.9,14.2,0.7,-0.2,-15.7,-15.9,0.351790594,"South","Republican","adjacent","nonspecialized",-90.8480639250114,34.4282480327346,16684,33.5,65.3,0.9787,7.3102602534,19929,695.624412717196,24.354407224,32.867584003,57591,1405,0.0243961730131444,-3.71332900270783
"137",5109,"Pike","AR",52,196,9.5,12.2,-2.6,0.2,7.5,7.7,0.791258478,"South","Republican","non-metro","nonspecialized",-93.6564822378582,34.1636706441815,19686,18.5,12.5,0.7011,11.997152011,11017,600.618826792418,20.061536848,22.160024602,21241,168,0.00790923214537922,-4.83972457582363
"138",5111,"Poinsett","AR",-375,341,13.1,14.1,-1,-0.2,-14.7,-14.8,0.712509713,"South","Republican","metro","nonspecialized",-90.6629962076398,35.5740283137053,17710,22.1,12.2,0.8163,9.5064828576,24131,758.360669548248,21.81181141,23.623821198,68412,1285,0.0187832543998129,-3.97478952949026
"139",5113,"Polk","AR",-55,155,10.8,14.3,-3.6,-0.2,1.1,0.9,0.804033532,"South","Republican","non-metro","nonspecialized",-94.2280724976008,34.4858696758929,18097,25.2,11.5,0.8653,12.98405467,20290,857.68404070276,20.483963328,23.878847287,30330,337,0.0111111111111111,-4.49980967033027
"140",5115,"Pope","AR",478,3270,12,9.3,2.7,0.2,4.6,4.8,0.72028003,"South","Republican","non-metro","nonspecialized",-93.0341595274245,35.4476333317574,20912,19.6,14.8,0.7412,10.510778253,63107,812.554455922888,19.385628677,22.076261622,234881,2706,0.0115207275173386,-4.46360747316168
"141",5117,"Prairie","AR",-20,131,9.9,14.4,-4.5,-0.2,2.4,2.1,0.727351916,"South","Republican","adjacent","farming",-91.5527893890706,34.8298053878833,21035,19.8,14.8,0.6963,9.1533546326,8334,647.914797847824,18.546803799,21.516630567,16231,177,0.010905058221921,-4.51852854033124
"142",5119,"Pulaski","AR",-7,8661,12.9,9.7,3.2,0.4,-3.6,-3.2,0.383393,"South","Republican","metro","government",-92.3117792779039,34.7699374134509,28421,18,46.4,0.5721,7.6573374299,391806,758.572268888328,18.180889407,19.188777642,1027514,18348,0.0178566910037236,-4.02537699484678
"143",5121,"Randolph","AR",-12,349,13.1,14.2,-1.1,-0.3,0.7,0.4,0.706850604,"South","Republican","non-metro","nonspecialized",-91.0277154059674,36.3414678747645,20059,19.6,4.7,0.6113,8.9218250509,17584,652.237683484978,20.486118772,22.104917161,45438,1762,0.0387781152339452,-3.24989923184575
"144",5123,"St Francis","AR",-515,4099,12.1,12.5,-0.4,0.1,-20.1,-20,0.430013459,"South","Republican","adjacent","government",-90.7477544449679,35.0220209556272,16540,24.6,59.3,0.9771,8.4730351765,27023,634.79468624923,24.12771764,27.936662613,208630,734,0.00351819009730144,-5.6498085985094
"145",5125,"Saline","AR",1363,1422,10.5,9,1.5,-0.1,9.8,9.8,0.688349328,"South","Republican","metro","nonspecialized",-92.6765186740944,34.6465934833437,26963,8.5,13.3,0.3206,7.5056325079,115577,723.566740326448,16.490518717,15.445541423,218426,2061,0.00943568989039766,-4.66325598249587
"146",5127,"Scott","AR",-58,79,10.9,11.3,-0.5,-0.5,-4.7,-5.1,0.778062678,"South","Republican","adjacent","manufacturing",-94.0632448442536,34.8607805580977,17934,20.9,15.4,0.9239,11.652025378,10661,892.300022848698,20.044696997,23.072638152,12176,64,0.00525624178712221,-5.2483389967418
"147",5129,"Searcy","AR",-49,71,9.2,14,-4.8,0.3,-1.4,-1.1,0.792650215,"South","Republican","non-metro","nonspecialized",-92.6995097338282,35.9109017438968,20618,20.7,6.3,0.4253,10.020484807,7938,666.094285034674,19.924647373,21.888274943,13254,45,0.00339520144861928,-5.68539218287785
"148",5131,"Sebastian","AR",257,2242,13.9,10,3.9,-0.4,-1.5,-1.9,0.652530412,"South","Republican","metro","manufacturing",-94.2741851685288,35.1996634220618,23383,22.2,29,0.7943,12.859227185,127351,531.895091265856,21.649019947,21.429853361,380746,5647,0.0148314099163222,-4.2110080554483
"149",5133,"Sevier","AR",-54,173,14.4,8.7,5.7,-1.3,-7.6,-8.9,0.719421306,"South","Republican","adjacent","manufacturing",-94.2411845149318,33.9971814466297,17458,22.4,41,0.8249,17.743724865,17193,565.126705462998,19.561479789,28.762924065,158134,1894,0.0119771839073191,-4.42475178009424
"150",5135,"Sharp","AR",152,189,11.1,13.8,-2.7,0.1,11.5,11.6,0.745895986,"South","Republican","non-metro","nonspecialized",-91.4798652241863,36.1611493570975,19404,22.2,6,0.6584,10.479041916,17027,604.438674033444,21.088879808,26.318175821,25871,954,0.0368752657415639,-3.30021425779723
"151",5137,"Stone","AR",52,151,8.9,13.3,-4.4,-0.6,9.2,8.6,0.732111072,"South","Republican","non-metro","nonspecialized",-92.1567081825378,35.8598833929609,19616,23.6,4.8,0.5479,11.866666667,12503,606.403855993044,20.459451544,22.626568804,28060,965,0.0343905915894512,-3.36997225231747
"152",5139,"Union","AR",-457,524,12.3,14.1,-1.8,0,-9.9,-9.9,0.618917959,"South","Republican","non-metro","mining",-92.5972743490475,33.17130767156,22240,20.7,38.7,0.8532,8.8951806104,40334,1039.21481378393,19.92321164,23.422520938,101184,4132,0.0408364958886781,-3.19817909032961
"153",5141,"Van Buren","AR",-90,189,8.5,15.1,-6.6,0.7,0.5,1.2,0.733342417,"South","Republican","adjacent","nonspecialized",-92.515693519527,35.5806518423107,19883,18.5,6.3,0.6765,9.804898298,16892,709.758813111484,18.995632143,20.980773497,18127,478,0.026369504054725,-3.63554708597146
"154",5143,"Washington","AR",2576,8244,13.5,6.7,6.7,0.7,3.4,4.1,0.506663735,"South","Republican","metro","nonspecialized",-94.2155836716935,35.9790676620886,25249,19,27.6,0.6466,12.418161979,219930,942.015268495394,18.972600972,20.147743381,1073228,11404,0.0106258875094575,-4.54446203735824
"155",5145,"White","AR",372,3175,11.2,10.7,0.6,-0.3,4.6,4.2,0.7743488,"South","Republican","adjacent","nonspecialized",-91.7455585916958,35.2562845277812,22510,17.7,11.3,0.7205,8.5383799864,78823,1035.09705371463,19.345567322,20.225538187,89955,1989,0.0221110555277639,-3.81167754541675
"156",5147,"Woodruff","AR",-146,106,10.9,16,-5,0,-17.5,-17.5,0.523920653,"South","Republican","non-metro","nonspecialized",-91.2430674721897,35.186327448288,18382,24.1,30.7,0.9293,9.6650524617,6873,586.76817468844,21.44540376,25.887393789,6072,0,0,-Inf
"157",5149,"Yell","AR",-121,323,12.1,11.4,0.7,-0.1,-6.2,-6.3,0.715639074,"South","Republican","adjacent","manufacturing",-93.4112456580797,35.0026095804533,18981,17.5,24,0.8835,12.00959397,21716,930.216279407486,20.807526357,25.062724311,157398,2880,0.0182975641367743,-4.00098733527442
"158",6001,"Alameda","CA",4573,36951,11.2,6.6,4.6,5.1,-7,-1.8,0.146610094,"West","Democrat","metro","nonspecialized",-121.888767331006,37.6469597754318,39042,12,67.4,0.5164,5.7827935577,1605217,739.092969318478,9.7327103382,12.412219044,2426521,45683,0.0188265421976566,-3.97248758580139
"159",6003,"Alpine","CA",40,24,9,4.5,4.5,0.9,31.6,32.5,0.360465116,"West","Democrat","adjacent","recreation",-119.820679847404,38.5972040222543,26783,18.9,32.1,0.6227,7.5669383003,1184,738.340010186566,14.455123742,16.46323334,431,0,0,-Inf
"160",6005,"Amador","CA",347,4368,7.8,10.8,-3,0.4,11.4,11.8,0.591237172,"West","Democrat","adjacent","government",-120.651102881223,38.4463952649397,27496,11.2,20.4,0.5046,6.1959071423,36963,594.571433560752,10.832189668,13.102499807,28694,1342,0.0467693594479682,-3.06252700312671
"161",6007,"Butte","CA",-11153,5337,10.8,11.2,-0.5,0.5,-50,-49.6,0.472395463,"West","Democrat","metro","nonspecialized",-121.600694376181,39.6669453719701,25077,21.3,26.6,0.7915,7.1636527881,223877,1636.46372957899,13.768327267,17.448755904,254648,3433,0.0134813546542679,-4.30644768490708
"162",6009,"Calaveras","CA",207,493,8.7,11.5,-2.9,0.3,7.1,7.4,0.583981674,"West","Democrat","adjacent","recreation",-120.554136049561,38.2046028507764,30577,12.7,17.7,0.2642,7.3307759688,44787,1020.01230764907,10.951935641,12.329144758,30841,979,0.0317434583833209,-3.45006861004259
"163",6011,"Colusa","CA",129,253,13.1,6,7.1,-1.5,0.5,-1.1,0.535434258,"West","Democrat","adjacent","farming",-122.236972647167,39.1774889944109,25745,13.5,63.1,0.7428,10.728094538,21361,1150.72788222321,12.217255923,19.415265469,53654,579,0.0107913669064748,-4.52900882502253
"164",6013,"Contra Costa","CA",3007,10418,10.5,7.4,3.1,2.5,-3,-0.5,0.248739207,"West","Democrat","metro","nonspecialized",-121.927939120675,37.9191670693643,40792,10.2,54.4,0.4078,5.8956173288,1107925,722.756231919232,9.9405871282,12.300484401,1763370,25255,0.0143220084270459,-4.24595787399888
"165",6015,"Del Norte","CA",72,3046,9.4,9.2,0.2,0.5,1.9,2.4,0.537141661,"West","Democrat","non-metro","government",-123.897261985252,41.7431353515116,20282,21.7,36.9,0.9733,6.2334416396,27628,1006.22050598413,15.132244804,17.683363319,17820,82,0.00460157126823793,-5.38135745376055
"166",6017,"El Dorado","CA",2097,1682,8.5,8.9,-0.4,0.4,11,11.4,0.526193758,"West","Democrat","metro","recreation",-120.524674582784,38.7787390108896,37089,9.8,21.3,0.2108,5.4030715273,183000,1707.86407436323,11.220360679,12.034088656,124102,306,0.00246571368712833,-6.00527398514591
"167",6019,"Fresno","CA",7151,17667,14.6,7.5,7.1,0.5,-0.3,0.1,0.439393027,"West","Democrat","metro","nonspecialized",-119.649318251026,36.7582014489301,21057,26.9,69.2,0.9666,8.7343786523,963160,5958.78060837103,13.358907816,23.79711945,2996911,37664,0.0125676071127905,-4.37663263943482
"168",6021,"Glenn","CA",426,334,13.2,8.9,4.3,-1.1,12,10.9,0.611193242,"West","Democrat","adjacent","farming",-122.392011900266,39.5982069138469,20362,20.3,46.9,0.9548,10.980544077,27976,1313.94540578235,13.18078902,18.473347161,58995,293,0.00496652258665989,-5.30503536451695
"169",6023,"Humboldt","CA",-686,5489,9.9,10.2,-0.3,-0.1,-4.6,-4.7,0.310113763,"West","Democrat","non-metro","nonspecialized",-123.87564318425,40.6993025442616,24038,21,24.6,0.7345,8.8795523313,135182,3567.96571403434,14.468508365,15.683096182,57000,887,0.0155614035087719,-4.16296156450711
"170",6025,"Imperial","CA",-308,8745,15,5.9,9.1,0.2,-11,-10.8,0.264165852,"West","Democrat","metro","government",-115.365362756509,33.0395169656596,16311,24.1,88.1,0.9965,7.9044018727,178807,4176.57793678728,12.840010729,24.612959002,1532094,36239,0.0236532484299266,-3.7442548191455
"171",6027,"Inyo","CA",93,411,10.6,9.6,1.1,1,3.2,4.2,0.525352461,"West","Democrat","non-metro","recreation",-117.410741955864,36.5111100801373,28678,10.8,36,0.6498,8.9622985488,18326,10180.9338321873,11.833847367,14.576148574,19689,1262,0.0640967037432069,-2.74736234004067
"172",6029,"Kern","CA",6444,32373,14.7,7.2,7.4,0.1,-0.3,-0.2,0.530727424,"West","Democrat","metro","nonspecialized",-118.729927371305,35.3428689243354,21094,23.1,64,0.9596,8.5992791008,871337,8131.92187546124,15.31417715,22.520319051,3437864,37227,0.0108285260848015,-4.52557132281728
"173",6031,"Kings","CA",1558,16513,15.3,5.8,9.4,-0.5,1.3,0.8,0.533480761,"West","Democrat","metro","government",-119.815552708012,36.0753552087704,19123,21.6,66.4,0.9742,9.0041260157,150261,1389.4202672119,14.270521128,21.445589321,854803,9092,0.010636368847559,-4.54347612704142
"174",6033,"Lake","CA",69,1110,11.4,13.2,-1.8,-0.4,3.3,2.9,0.432682887,"West","Democrat","adjacent","nonspecialized",-122.753203195302,39.0996221027628,21799,24.6,27.7,0.9427,9.244419004,64076,1256.48721580117,14.401200944,18.04353192,51134,868,0.0169750068447608,-4.07601320231149
"175",6035,"Lassen","CA",-45,7661,9.2,6.6,2.6,0.2,-4.3,-4.1,0.719688331,"West","Democrat","non-metro","government",-120.594328680414,40.6735944017347,20072,16.2,33.9,0.745,4.7716428085,31945,4541.17844536702,13.718787061,15.204460729,85651,26,0.000303557459924578,-8.09993964108586
"176",6037,"Los Angeles","CA",-34799,179406,11.2,6.8,4.5,2.1,-10,-7.9,0.224133363,"West","Democrat","metro","nonspecialized",-118.217048733019,34.3589223664316,29301,17.8,73.3,0.7883,10.059485018,10057155,4058.18338166845,10.847678109,16.418669345,33677204,886321,0.0263181290228251,-3.63749726081066
"177",6039,"Madera","CA",445,7445,13.4,6.7,6.7,-0.9,-3,-3.8,0.541774912,"West","Democrat","metro","nonspecialized",-119.762688038884,37.2179843407527,19021,22.1,64.2,0.9459,10.38586454,153366,2137.11250838252,13.444284132,22.548282987,447474,6514,0.0145572703665464,-4.22966472861431
"178",6041,"Marin","CA",-836,8307,8.3,7.7,0.6,1.7,-5.5,-3.8,0.156318884,"West","Democrat","metro","recreation",-122.724085765348,38.0738660828082,63608,8.1,28.1,0.2623,5.4131949119,259358,520.489162894294,9.7252337607,10.57673869,792320,12723,0.0160579058966074,-4.13155397145556
"179",6043,"Mariposa","CA",-202,725,8.6,10.4,-1.8,0.5,-10.3,-9.8,0.584093725,"West","Democrat","adjacent","recreation",-119.905437998504,37.5815132460153,27832,16.3,18.5,0.532,7.9952644041,17645,1448.81704560523,11.745263222,13.715956756,9336,280,0.0299914310197087,-3.50684357079714
"180",6045,"Mendocino","CA",-652,1981,10.7,9.9,0.8,-0.7,-7.6,-8.3,0.290524855,"West","Democrat","adjacent","recreation",-123.391486028242,39.4402321690103,25278,20.2,33.6,0.8825,10.72739553,87409,3506.35509241036,12.905413824,16.507229143,89592,1750,0.019532994017323,-3.93565024234497
"181",6047,"Merced","CA",3529,7006,14.8,6.5,8.3,-0.5,5,4.5,0.405783384,"West","Democrat","metro","nonspecialized",-120.71766656778,37.1918953152357,19130,24.2,70.5,0.9806,8.7471237822,265001,1935.21090999721,14.129606461,22.709474944,906499,13334,0.0147093377929816,-4.21927276285447
"182",6049,"Modoc","CA",41,356,8,11.3,-3.3,0.6,7.4,7.9,0.711721225,"West","Democrat","adjacent","government",-120.724959929274,41.5898526556218,21899,16.9,22.4,0.5727,10.530470477,9033,3915.44325065426,13.824458393,16.446233854,1890,0,0,-Inf
"183",6051,"Mono","CA",41,338,8.7,2.1,6.7,4.4,-8.3,-3.9,0.400113723,"West","Democrat","non-metro","recreation",-118.88685440928,37.9390920464878,31059,8.8,34.1,0.2853,9.9790180445,14051,3048.98552849002,11.936718182,13.811942517,21971,301,0.0136998771107369,-4.29036841620749
"184",6053,"Monterey","CA",111,18075,13.4,6.3,7,-0.2,-6.6,-6.8,0.261566023,"West","Democrat","metro","recreation",-121.239216857037,36.2171642713656,25947,16.1,68.9,0.8157,11.469413147,430201,3280.58105871745,12.249990899,21.68177363,1020198,7759,0.00760538640538405,-4.87889854517517
"185",6055,"Napa","CA",-1045,5061,8.9,9.3,-0.3,-0.1,-7.1,-7.2,0.283696148,"West","Democrat","metro","recreation",-122.330531353597,38.5064901332749,38057,8.8,46.3,0.5049,8.5375290173,140823,748.329752715716,9.9328479729,14.121671961,183607,1690,0.00920444209643423,-4.68806907488627
"186",6057,"Nevada","CA",247,1178,7.8,9.9,-2.1,0,4.7,4.6,0.425320834,"West","Democrat","adjacent","recreation",-120.768463376512,39.3013743453952,33385,12.1,14.4,0.2197,7.0499404982,98639,957.76699958832,11.508296567,11.943551373,59517,662,0.011122872456609,-4.49875170907387
"187",6059,"Orange","CA",-281,43984,11.5,6.8,4.7,1.9,-6.7,-4.8,0.42349821,"West","Democrat","metro","nonspecialized",-117.76109087688,33.7029787122117,35939,12.5,58,0.4425,8.3365759293,3132211,790.621952662396,9.311197445,13.902377773,6396207,135461,0.0211783327212518,-3.85477666139506
"188",6061,"Placer","CA",5999,3947,9.4,8.8,0.6,0.2,14.4,14.6,0.520337565,"West","Democrat","metro","recreation",-120.71756048968,39.0634682770267,37914,8.7,25.7,0.1834,4.2716778146,370571,1407.084278885,9.7846207167,10.64040164,388480,5139,0.0132284802306425,-4.32538318042099
"189",6063,"Plumas","CA",66,287,8.4,11.3,-3,-0.2,6.7,6.6,0.560148822,"West","Democrat","non-metro","recreation",-120.838549906052,40.0046385148289,31292,12.8,16.3,0.3906,6.904315197,18754,2553.06124819929,11.489555607,13.761088815,5411,0,0,-Inf
"190",6065,"Riverside","CA",24757,32869,12,7.4,4.6,0.1,5.4,5.5,0.443501453,"West","Democrat","metro","recreation",-115.993827440125,33.7436542378953,24443,16.5,62.8,0.8214,8.9320239584,2323892,7206.2875542024,12.499944322,17.059475739,6976782,147856,0.021192578469558,-3.8541042307844
"191",6067,"Sacramento","CA",13312,22963,12.4,8,4.4,2,2.2,4.2,0.339314895,"West","Democrat","metro","government",-121.34425496619,38.4493182775248,28292,17.9,53.6,0.7797,6.4159371791,1479300,964.939792890934,11.550028552,15.80089097,2287349,42153,0.0184287574830076,-3.99384292774958
"192",6069,"San Benito","CA",1341,289,12.5,5.2,7.2,-0.6,14.9,14.3,0.35764459,"West","Democrat","metro","nonspecialized",-121.074974577627,36.605687738987,27848,10.8,63.9,0.5677,8.1051770391,58051,1388.71441175178,10.783185266,17.459972888,136926,1240,0.00905598644523319,-4.70432925429438
"193",6071,"San Bernardino","CA",13332,37308,13.5,7,6.5,0.1,-0.4,-0.3,0.414750842,"West","Democrat","metro","nonspecialized",-116.178419507298,34.8413860585926,21857,19.1,69.5,0.9105,8.3338412857,2106754,20057.2732502486,12.628276552,19.837560581,6120863,104441,0.0170631167533075,-4.07083605997624
"194",6073,"San Diego","CA",4469,107139,12.2,6.9,5.3,2,-5.9,-3.9,0.36571188,"West","Democrat","metro","nonspecialized",-116.735305013808,33.0341418382434,32482,14,53.3,0.5724,8.4051288606,3253356,4206.63913232672,10.753175291,14.458895214,5559908,106515,0.0191576910984858,-3.95505102004297
"195",6075,"San Francisco","CA",853,24242,10.1,7.2,2.8,5.1,-6.9,-1.8,0.092875168,"West","Democrat","metro","nonspecialized",-122.440883273162,37.7551299310926,55567,12.5,58.8,0.4088,5.0078621127,850282,46.894283662074,10.326062381,11.477559096,1350186,14449,0.0107014885356536,-4.53737243170829
"196",6077,"San Joaquin","CA",9657,15758,13.2,7.7,5.5,0.9,6.4,7.3,0.3967417,"West","Democrat","metro","nonspecialized",-121.271410851838,37.9347613818742,23477,17.8,66.1,0.9045,7.5756058325,714860,1392.390607041,11.706166224,17.342112673,2155240,43297,0.0200891780033778,-3.90757401670278
"197",6079,"San Luis Obispo","CA",-243,15937,8.8,8.7,0.1,0,-0.9,-0.9,0.416001896,"West","Democrat","metro","recreation",-120.404526139368,35.3870861594811,32335,14.2,30.3,0.377,7.2576262211,278680,3300.64713139637,10.783296935,13.155328644,383473,2789,0.00727300227134635,-4.92358610551137
"198",6081,"San Mateo","CA",-2108,8786,11,6.8,4.2,4.7,-11.7,-7,0.184261922,"West","Democrat","metro","nonspecialized",-122.329024394902,37.4228976655904,50262,7.7,59.6,0.2735,5.4100817418,754748,448.518848160022,8.6133573373,12.261845994,1181730,23319,0.0197329339189155,-3.92546626656063
"199",6083,"Santa Barbara","CA",719,20112,12.1,7.4,4.7,1.2,-4.3,-3.1,0.318831808,"West","Democrat","metro","nonspecialized",-120.022284859834,34.7248183614413,31098,15.9,54.1,0.716,10.508552834,439395,2735.146798889,11.377310554,17.130036044,1106908,12094,0.0109259306103127,-4.51661635990625
"200",6085,"Santa Clara","CA",-4485,30212,11.2,5.8,5.4,6.9,-14.7,-7.8,0.205803819,"West","Democrat","metro","manufacturing",-121.695141328068,37.2317948046182,46034,9.3,66.8,0.3852,5.1015067133,1885056,1291.20617752814,8.2690140125,12.166326555,2350717,45693,0.0194378991601286,-3.94053055368422
"201",6087,"Santa Cruz","CA",-628,14386,9.3,6.9,2.4,0.2,-4.9,-4.7,0.174179676,"West","Democrat","metro","recreation",-122.001843073204,37.0561838210765,34732,15.1,41.8,0.5148,7.3566808744,270931,445.16299204766,11.440834335,15.248519697,247929,1551,0.00625582323971782,-5.0742425306591
"202",6089,"Shasta","CA",371,2854,11,12.8,-1.8,1.1,2.9,3.9,0.646796497,"West","Democrat","metro","nonspecialized",-122.040514414622,40.7637177635858,25094,17.5,19,0.6807,7.0985887624,179228,3775.37464354831,13.963535044,14.385074617,109183,2319,0.0212395702627698,-3.85188931526271
"203",6091,"Sierra","CA",8,33,8.3,12.3,-4,0,6.7,6.7,0.572677596,"West","Democrat","adjacent","recreation",-120.516022916857,39.5803292552869,31873,11.3,14.1,0.0933,7.844080847,2931,953.167917429874,11.80830717,13.772263772,610,0,0,-Inf
"204",6093,"Siskiyou","CA",-11,613,8.8,12.1,-3.3,0,3.1,3.1,0.553435487,"West","Democrat","adjacent","nonspecialized",-122.540379026201,41.5926445836349,23542,22,22.4,0.8138,8.6399950646,43668,6278.78101237639,14.066326017,15.879866179,17843,0,0,-Inf
"205",6095,"Solano","CA",1918,11538,11.4,8.3,3.1,0.6,0.6,1.2,0.312558319,"West","Democrat","metro","nonspecialized",-121.932865211764,38.2699778962168,30251,12.7,60.6,0.6511,5.6540730841,429596,821.771831903096,11.705074337,15.021336128,706100,7834,0.0110947457867158,-4.50128363527866
"206",6097,"Sonoma","CA",-4307,10912,9.1,8.8,0.3,0.2,-9.1,-8.9,0.222301981,"West","Democrat","metro","recreation",-122.887422734841,38.5282921130942,35639,11.2,35.6,0.4285,7.5824442529,497776,1575.85121019655,10.07567654,14.139892629,774263,10856,0.0140210755260164,-4.26719368662215
"207",6099,"Stanislaus","CA",2534,6511,13.5,7.9,5.6,0.3,-1.2,-1,0.455973418,"West","Democrat","metro","nonspecialized",-120.997703485602,37.559140069263,22915,18.2,55.9,0.8832,6.9565051394,530561,1496.0073158327,12.789751068,18.416161201,1752091,33942,0.0193722814625496,-3.94391202519766
"208",6101,"Sutter","CA",623,731,13.1,8.6,4.5,1,1,2,0.542194911,"West","Democrat","metro","nonspecialized",-121.694846590233,39.0345490247904,24335,17.5,52,0.8634,8.5915683549,95406,602.417961725898,11.952152448,16.616730033,169589,1299,0.00765969490945757,-4.87178312507537
"209",6103,"Tehama","CA",1066,844,11.4,10.2,1.2,-0.4,15.7,15.3,0.648067592,"West","Democrat","adjacent","nonspecialized",-122.234073648875,40.1256314049969,21521,21.5,30.2,0.9491,7.8176409165,63015,2949.71132742521,14.258973789,18.045139355,58649,533,0.00908796398915583,-4.70080437947204
"210",6105,"Trinity","CA",-282,385,9.5,13,-3.5,-0.1,-19.2,-19.3,0.494548013,"West","Democrat","adjacent","government",-123.112653334576,40.6507069415958,22387,20.1,17,0.731,8.7089381207,13180,3179.2662626365,14.700216999,16.384605766,1888,0,0,-Inf
"211",6107,"Tulare","CA",1606,4932,15.1,6.9,8.2,-0.6,-4.2,-4.8,0.518979116,"West","Democrat","metro","nonspecialized",-118.800496584238,36.2201676581113,18257,28.3,69.9,0.9376,8.7607049894,455769,4824.35078037378,13.799712245,25.742945903,1815228,34713,0.0191232175792793,-3.95685210208184
"212",6109,"Tuolumne","CA",91,3523,8.6,11.4,-2.8,0.4,4.3,4.6,0.569979239,"West","Democrat","adjacent","recreation",-119.954768012712,38.0275935431412,29431,14.2,18.8,0.568,6.3608399091,53864,2220.92977997277,11.343019399,13.20999481,24320,339,0.0139391447368421,-4.27305422869965
"213",6111,"Ventura","CA",-2136,11171,10.8,7.4,3.4,0.2,-6.1,-6,0.376210459,"West","Democrat","metro","nonspecialized",-119.078239706365,34.4715950188429,34331,10.6,53.4,0.5062,9.2582189133,843110,1843.01561458388,10.561021793,15.154672198,1411288,17124,0.0121335971112912,-4.41177705330227
"214",6113,"Yolo","CA",382,10389,10.1,6.3,3.8,3.9,-6,-2.1,0.252637349,"West","Democrat","metro","government",-121.901582913292,38.6866097702396,28996,19.3,51.9,0.6756,5.9785182725,209671,1014.77515216712,10.906577644,15.900906093,307350,7754,0.0252285667805434,-3.67977832410428
"215",6115,"Yuba","CA",1111,1113,14.7,7.5,7.2,0,6.9,6.9,0.572658492,"West","Democrat","metro","government",-121.351275988798,39.2690140603318,21418,20.8,43,0.9513,7.4102194215,73897,632.037834185096,14.179140049,16.392537223,113309,882,0.00778402421696423,-4.85568182298248
"216",8001,"Adams","CO",6067,4036,13.2,6.2,6.9,2.3,2.5,4.8,0.413507862,"West","Democrat","metro","nonspecialized",-104.337781939323,39.8736347837771,26051,12.9,48.3,0.6332,11.026551173,479977,1167.29118157335,16.324605425,16.643578713,1296771,34622,0.0266986229642705,-3.62314328927783
"217",8003,"Alamosa","CO",-15,852,12.2,7.1,5.1,-0.2,-5.7,-6,0.438968151,"West","Democrat","non-metro","government",-105.788376863393,37.5729414099764,18133,31.4,50.9,0.9834,13.191061625,16353,722.576715724842,17.284642561,22.840436161,37223,1265,0.0339843645058163,-3.38185472761344
"218",8005,"Arapahoe","CO",4793,5014,11.6,6.3,5.3,3.8,-1.8,2.1,0.386254892,"West","Democrat","metro","nonspecialized",-104.33835703739,39.6497070870396,35250,10.7,38.1,0.3056,8.5250561118,617668,797.92900907449,13.263552471,11.684058075,1418778,66788,0.0470743132470337,-3.05602779303108
"219",8007,"Archuleta","CO",299,129,9.2,6.7,2.4,0.6,18.4,19,0.581005587,"West","Democrat","non-metro","recreation",-107.048295972278,37.1935420538485,28649,11.2,23.2,0.2569,12.915392457,12355,1350.08954103409,13.476071073,13.831244068,6244,0,0,-Inf
"220",8009,"Baca","CO",-3,82,10.3,12.8,-2.5,0.8,0.8,1.7,0.814212726,"West","Democrat","non-metro","farming",-102.560482862574,37.319190859898,22113,18,13.7,0.5314,15.795586527,3648,2554.99160028357,15.17142555,15.613659835,3405,0,0,-Inf
"221",8011,"Bent","CO",-231,1693,6.3,10,-3.7,0.4,-37.8,-37.4,0.616502335,"West","Democrat","non-metro","farming",-103.071732609394,37.9551022002009,13772,25.2,41.4,0.829,10.371106693,5816,1512.86477008035,18.217267397,19.999430047,1407,0,0,-Inf
"222",8013,"Boulder","CO",1560,10339,8,5.9,2.1,2.9,-0.1,2.8,0.2200253,"West","Democrat","metro","nonspecialized",-105.358116894927,40.0926639131351,40097,13.4,21.6,0.17,6.772989506,313961,726.339712921286,11.318441782,11.612699398,479602,14462,0.0301541694988762,-3.50143207353369
"223",8015,"Chaffee","CO",315,1460,6.5,8.7,-2.2,0.4,17.4,17.8,0.4792,"West","Democrat","non-metro","recreation",-106.194143470668,38.747029423014,27848,9.6,12.7,0.1605,10.173031026,18507,1013.40797695428,13.488872927,12.804392222,43906,3793,0.0863891039948982,-2.44889372229497
"224",8017,"Cheyenne","CO",-28,42,9.2,7,2.2,3.3,-20.6,-17.3,0.83938294,"West","Democrat","non-metro","farming",-102.603523050091,38.8279540841918,23916,11.3,15.7,0.2267,14.8981026,2071,1778.27539918326,14.000025537,12.989137495,1602,0,0,-Inf
"225",8019,"Clear Creek","CO",96,84,7.6,5.9,1.7,2.4,5.8,8.2,0.438970338,"West","Democrat","metro","mining",-105.644412589297,39.6891861499056,42355,7.4,9.5,0.0121,5.5105771742,9238,395.196503651932,12.483216724,10.47247951,6563,200,0.0304738686576261,-3.49088572792569
"226",8021,"Conejos","CO",24,36,10.5,8.9,1.6,0.4,1.2,1.6,0.475882645,"West","Democrat","non-metro","farming",-106.191619435593,37.2007192893964,18221,22.1,56.4,0.8857,10.739709068,8213,1287.42763393467,15.554174957,22.693590583,4734,1,0.000211237853823405,-8.46252579007393
"227",8023,"Costilla","CO",75,0,9.6,8.8,0.8,2.6,16.4,19,0.318181818,"West","Democrat","non-metro","farming",-105.428245330261,37.2781303615325,20238,30.4,68.2,0.8574,14.85628966,3590,1227.59288884578,17.104496838,27.970707818,4375,68,0.0155428571428571,-4.16415409361561
"228",8025,"Crowley","CO",104,2917,5,5.8,-0.8,0,18.1,18.1,0.706614276,"West","Democrat","adjacent","government",-103.784480549739,38.3265911528089,12513,34.1,39.8,0.908,11.060948081,5537,787.424322694042,18.629092853,18.807642967,13401,233,0.0173867621819267,-4.05204615645453
"229",8027,"Custer","CO",134,150,6.6,8,-1.4,-0.2,28.2,28,0.67221135,"West","Democrat","adjacent","recreation",-105.367524039569,38.108693787051,22333,17.9,10.2,0.3254,12.610062893,4375,738.625465047716,13.658191367,13.443431862,2049,0,0,-Inf
"230",8029,"Delta","CO",278,714,9.1,12.7,-3.6,0.1,12.4,12.5,0.694163192,"West","Democrat","adjacent","mining",-107.862912914917,38.8613610755002,24261,16.8,18.3,0.6874,10.723033657,30221,1142.08635575429,14.599282442,15.658743653,24349,350,0.0143743069530576,-4.24231290542217
"231",8031,"Denver","CO",10946,16348,13,6.9,6.1,3.1,5.9,9,0.188909514,"West","Democrat","metro","nonspecialized",-104.87634514822,39.7615173244452,36616,16.4,46.6,0.4798,10.741990131,663303,153.33420464086,14.664503351,15.084856657,1951389,75865,0.0388774355087581,-3.24734126070218
"232",8033,"Dolores","CO",-5,0,5.3,4.9,0.5,0,-3.4,-3.4,0.752191235,"West","Democrat","non-metro","farming",-108.517391092818,37.7517118162651,21112,19.3,7.7,0.3349,11.703511053,1789,1067.16991248904,15.27942802,14.541086226,258,0,0,-Inf
"233",8035,"Douglas","CO",8165,651,10,4.3,5.7,1.6,16.1,17.8,0.547058918,"West","Democrat","metro","nonspecialized",-104.929569115671,39.3297128089567,47062,3.8,16.2,0.0175,3.7801851723,314238,840.263248579134,10.723985989,8.1206450181,358669,10620,0.0296094728008275,-3.51966094179487
"234",8037,"Eagle","CO",184,55,10.2,2.3,7.8,2.1,-6.6,-4.5,0.356420727,"West","Democrat","non-metro","recreation",-106.695376927959,39.6278518475046,38604,8.1,32.8,0.1487,12.249933178,52894,1684.51471768996,12.546902347,12.262054388,200750,1869,0.00931008717310087,-4.67665682435345
"235",8039,"Elbert","CO",426,73,7.4,5.6,1.8,1.3,13,14.3,0.732569783,"West","Democrat","metro","farming",-104.135956906152,39.2865834685217,39360,5.1,10.3,0.0045,7.7903486493,24225,1850.84128358847,12.732064686,10.793960606,20682,449,0.0217096992553912,-3.82999614800267
"236",8041,"El Paso","CO",8314,19083,13.3,6.8,6.5,0.7,4.3,5.1,0.561901388,"West","Democrat","metro","nonspecialized",-104.525470530133,38.8321097818637,30261,11.3,29.6,0.3642,7.610916447,665171,2126.84004498048,14.264909913,12.590610915,935196,27526,0.0294334021959033,-3.52562512043141
"237",8043,"Fremont","CO",-120,8237,8,11.8,-3.8,-0.1,1.5,1.4,0.688208256,"West","Democrat","adjacent","government",-105.439670319261,38.4729665614747,19427,16.6,20.5,0.688,9.0719463822,46835,1533.08152640071,15.569836581,16.074168981,31658,69,0.00217954387516583,-6.12863965564842
"238",8045,"Garfield","CO",360,884,13,6.3,6.7,0.9,-1.6,-0.7,0.496108802,"West","Democrat","non-metro","mining",-107.904093679922,39.5993215843907,29179,11.1,31.2,0.4448,13.844038499,57495,2947.53364921058,13.763628695,13.165406817,118627,731,0.0061621721867703,-5.0893259358728
"239",8047,"Gilpin","CO",131,49,5.8,3.9,1.9,0,18.9,18.9,0.437919463,"West","Democrat","metro","recreation",-105.522526338677,39.8575684996554,37027,7.1,13.9,0.0076,4.3435144784,5708,149.895982933246,12.742128838,10.475343256,2569,0,0,-Inf
"240",8049,"Grand","CO",223,222,7,4.2,2.8,0.6,10.9,11.5,0.523288309,"West","Democrat","non-metro","recreation",-106.118340868048,40.102636936247,32348,10.6,12.6,0.1032,10.638970066,14490,1846.44034743202,14.168644525,11.836602538,10403,131,0.0125925213880611,-4.37465218186974
"241",8051,"Gunnison","CO",295,1019,7.5,4,3.5,0.4,13.1,13.5,0.349447514,"West","Democrat","non-metro","mining",-107.03163217978,38.6667747873872,25920,15.4,12.1,0.2732,10.489662677,15889,3239.14020402822,14.971350569,13.138637749,50093,1315,0.0262511728185575,-3.64004461214038
"242",8053,"Hinsdale","CO",12,56,2.5,3.7,-1.2,0,16,16,0.575551783,"West","Democrat","non-metro","recreation",-107.300312326756,37.8212908024007,29958,11.2,6.5,0.0516,10.526315789,856,1117.23033409594,12.894842733,12.127611981,654,0,0,-Inf
"243",8055,"Huerfano","CO",10,165,7,13.9,-7,0.6,7.8,8.4,0.497753106,"West","Democrat","adjacent","recreation",-104.960629457243,37.6846831978076,25062,17.1,35.3,0.5654,7.928331467,6521,1591.03226400058,13.173637306,17.300850253,2171,154,0.0709350529709811,-2.64599056746466
"244",8057,"Jackson","CO",-3,2,11.5,7.2,4.3,0.7,-8.6,-7.9,0.730545877,"West","Democrat","non-metro","farming",-106.342800578783,40.6664521221837,26798,13.8,18.1,0.0493,13.644859813,1306,1613.72499592144,14.462951644,13.964569197,1077,0,0,-Inf
"245",8059,"Jefferson","CO",3489,8309,10,7.9,2.1,1,2.9,3.9,0.420141571,"West","Democrat","metro","nonspecialized",-105.250535518009,39.5864201268531,38367,8.1,21.1,0.0748,6.7507525323,558810,764.212605206148,12.320125467,9.347265343,834320,42860,0.051371176526992,-2.96867803176753
"246",8063,"Kit Carson","CO",-62,58,10.9,10.4,0.6,1.1,-10.5,-9.4,0.801458671,"West","Democrat","non-metro","farming",-102.602953060781,39.3054969363963,24327,14.2,24.4,0.5371,14.905958868,8174,2160.8205951267,14.119193893,14.33741347,11620,580,0.0499139414802065,-2.99745492686544
"247",8065,"Lake","CO",281,154,10.8,3.5,7.3,0,27.5,27.5,0.396999062,"West","Democrat","adjacent","mining",-106.344781607934,39.2024985640442,26693,11.5,37.2,0.313,11.744966443,7401,376.918900610944,14.969632987,16.46451412,13570,0,0,-Inf
"248",8067,"La Plata","CO",-78,1872,8.4,6.5,1.9,-0.2,-3,-3.2,0.404077047,"West","Democrat","adjacent","recreation",-107.843339607135,37.2865597563174,32953,10.7,20.6,0.1207,11.554570091,53994,1689.78094703862,14.778477805,12.422990795,37667,298,0.00791143441208485,-4.83944617203933
"249",8069,"Larimer","CO",6239,9367,9.4,6.5,2.9,1.5,13.1,14.6,0.425706705,"West","Democrat","metro","recreation",-105.461155919953,40.6663926921907,32433,13.2,16.6,0.1229,7.4209331016,325228,2596.18089484792,12.667672587,11.680454125,328454,7466,0.0227307324617755,-3.7840374171857
"250",8071,"Las Animas","CO",-2,902,8.1,11,-3,1.2,1.7,2.9,0.546150449,"West","Democrat","non-metro","nonspecialized",-104.03874959892,37.3158000240042,23857,14.3,47.1,0.6444,12.198780122,14322,4772.9359932601,15.036140121,19.748391603,3885,21,0.00540540540540541,-5.22035582507832
"251",8073,"Lincoln","CO",95,1018,10.8,7.8,3,0.7,12.9,13.6,0.776683087,"West","Democrat","adjacent","government",-103.513953345515,38.988092055391,14210,17,33,0.6842,9.5330201713,5515,2577.67822252638,14.783170586,13.845761292,1776,0,0,-Inf
"252",8075,"Logan","CO",141,3868,9.7,8.7,1,0.3,5.1,5.4,0.749022835,"West","Democrat","non-metro","government",-103.11013421135,40.7246794672952,23692,16.3,21.5,0.5963,10.528086108,21862,1838.59764785431,15.533597307,14.565603901,140598,1075,0.00764591245963669,-4.8735840929447
"253",8077,"Mesa","CO",1259,4437,10.6,9.9,0.8,-0.1,7.5,7.4,0.641044132,"West","Democrat","metro","nonspecialized",-108.466444931953,39.018303228672,26731,16.3,18,0.5514,9.5414318846,148166,3328.93724076823,15.635450965,14.089154482,79315,710,0.00895164849019731,-4.71591757480719
"254",8079,"Mineral","CO",-3,0,10.4,6.5,3.9,0,-7.8,-7.8,0.527607362,"West","Democrat","non-metro","recreation",-106.924132253211,37.6689482888306,35041,8.2,15.5,0.0382,9.925093633,793,875.760062978364,12.747824237,11.949737491,2603,0,0,-Inf
"255",8081,"Moffat","CO",100,102,12.8,6.1,6.7,1.4,-0.6,0.8,0.81302682,"West","Democrat","non-metro","mining",-108.207443297347,40.6183915234215,26344,11.1,18.1,0.3321,9.9257380909,13034,4743.24140041135,14.581587317,13.356456687,5353,120,0.02241733607323,-3.79792068761134
"256",8083,"Montezuma","CO",31,243,10.1,10.7,-0.6,-0.6,2.5,1.9,0.610748172,"West","Democrat","adjacent","nonspecialized",-108.59658691219,37.3385684825327,22738,18.7,26.8,0.4282,13.798893718,26006,2029.27791477866,15.905568407,15.432541411,20138,805,0.0399741781706227,-3.219521579057
"257",8085,"Montrose","CO",552,542,10.1,10.2,-0.1,0.4,12.8,13.1,0.67884452,"West","Democrat","adjacent","nonspecialized",-108.269263727931,38.4022261006866,23276,18,23.6,0.7367,12.203485811,40866,2240.94513699569,15.431181265,16.251343254,55913,2545,0.0455171427038435,-3.08966626126065
"258",8087,"Morgan","CO",299,563,15.1,8.3,6.8,5.9,-2.4,3.5,0.681020067,"West","Democrat","adjacent","manufacturing",-103.809745015699,40.262642484868,23408,10.7,40.1,0.7647,12.351543943,28288,1280.48469912182,14.186067013,16.567497267,134815,8527,0.0632496383933539,-2.76066586849197
"259",8089,"Otero","CO",-60,488,11.8,12.8,-1,0.4,-2.7,-2.3,0.583057265,"West","Democrat","adjacent","nonspecialized",-103.716493895797,37.9025833121553,19842,23.1,45.2,0.9424,10.822910745,18440,1261.96069041765,16.209473009,20.316636808,11963,717,0.0599347989634707,-2.81449799157128
"260",8091,"Ouray","CO",130,0,4.1,7,-2.9,0.2,28.9,29.1,0.4081571,"West","Democrat","non-metro","recreation",-107.769275454187,38.1554738619069,34993,9.2,8.4,0.0156,8.6821266968,4651,541.592746087598,12.616688327,11.163319261,3475,229,0.0658992805755396,-2.71962775444465
"261",8093,"Park","CO",320,92,7.2,6.3,0.9,-0.4,16.4,16.1,0.588941154,"West","Democrat","metro","recreation",-105.717122673727,39.1193262025734,34442,6.3,10,0,8.7417958386,16440,2193.89724458342,12.853324383,10.59726292,8360,113,0.0135167464114833,-4.30382588736641
"262",8095,"Phillips","CO",-20,60,9.8,13.3,-3.5,5.4,-6.5,-1.2,0.768010292,"West","Democrat","non-metro","farming",-102.357611612458,40.5939794889637,26290,11.9,20.7,0.3381,13.240206499,4347,687.927575525246,12.29095581,13.63905579,4527,0,0,-Inf
"263",8097,"Pitkin","CO",-209,72,7.3,3.1,4.2,5.2,-21.3,-16.1,0.242326333,"West","Democrat","non-metro","recreation",-106.916611150442,39.2170928512421,59229,8.6,13.9,0.0579,12.251043734,17543,970.700942068962,12.266772787,10.585429711,31897,449,0.0140765589240367,-4.26324435272113
"264",8099,"Prowers","CO",93,315,13,9.5,3.5,1.4,2.8,4.2,0.703947368,"West","Democrat","non-metro","nonspecialized",-102.393369053461,37.9552016978582,20589,20.6,39.3,0.9417,14.103502352,12121,1638.39370289721,15.038081079,17.468110578,11966,56,0.00467992645829851,-5.36447288321483
"265",8101,"Pueblo","CO",1002,4457,10.8,10.9,-0.2,0.4,5.8,6.2,0.461116904,"West","Democrat","metro","nonspecialized",-104.512715874728,38.1735152041911,22431,20.2,47.3,0.8676,8.4312338892,162158,2386.07178261867,16.428117379,22.515117101,152181,5841,0.0383819267845526,-3.26016858683434
"266",8103,"Rio Blanco","CO",-6,263,9.8,6.8,3,1.7,-5.8,-4.1,0.808985507,"West","Democrat","non-metro","mining",-108.217062853582,39.9798602400454,27419,12.4,12.2,0.2541,9.1734260332,6658,3220.96910606563,14.133557756,12.574311527,2570,0,0,-Inf
"267",8105,"Rio Grande","CO",-4,198,10.2,10,0.2,1.1,-1.5,-0.4,0.557462956,"West","Democrat","non-metro","nonspecialized",-106.383240050951,37.5825254546806,22918,19.2,47.2,0.9223,13.609734114,11623,911.955971805588,14.193381545,17.289462827,14696,293,0.0199373979314099,-3.91515801787789
"268",8107,"Routt","CO",131,323,8.1,5.2,2.9,1.7,0.5,2.2,0.373945374,"West","Democrat","non-metro","recreation",-106.99126402697,40.4851500016841,36692,10.2,10.1,0.0528,8.4615744422,23980,2362.01866779136,14.35470545,10.959992734,23109,1376,0.0595439006447704,-2.82104141252779
"269",8109,"Saguache","CO",-16,18,10.1,8.6,1.5,1.3,-5,-3.7,0.404585538,"West","Democrat","non-metro","farming",-106.281520892119,38.0805336205156,21356,22.6,42.5,0.7186,16.948814977,6255,3168.56448431252,17.560154882,20.974047889,18201,316,0.0173616834239877,-4.0534896030235
"270",8111,"San Juan","CO",-36,0,5.4,5.4,0,0,-49.6,-49.6,0.424901186,"West","Democrat","non-metro","recreation",-107.676167046657,37.7640344637517,29427,3.8,24.1,0.0408,8.5766423358,552,387.515365367302,16.019892247,15.05190653,650,0,0,-Inf
"271",8113,"San Miguel","CO",-1,9,7.5,2.9,4.5,5,-9.7,-4.6,0.238623239,"West","Democrat","non-metro","recreation",-108.405860797756,38.0038110607591,35701,11.9,13,0.0595,11.819641033,7767,1286.72588930255,14.374944826,11.99361551,13004,0,0,-Inf
"272",8115,"Sedgwick","CO",-28,35,5.7,14.1,-8.4,-0.4,-3.5,-4,0.744134897,"West","Democrat","non-metro","farming",-102.35183349752,40.8759229243648,24247,14.7,20,0.4766,12.107101281,2367,548.040564159056,13.858229967,14.63173681,1986,101,0.0508559919436052,-2.97875732776386
"273",8117,"Summit","CO",194,273,8.6,2.2,6.4,3.3,-3.4,-0.1,0.315320885,"West","Democrat","non-metro","recreation",-106.116378489009,39.6341866416798,36545,12.1,18.6,0.072,11.053722903,29269,608.337770254378,13.712538017,10.859803526,70601,676,0.00957493519921814,-4.64860651164401
"274",8119,"Teller","CO",275,132,7,7.8,-0.9,-0.1,11.9,11.8,0.674674605,"West","Democrat","metro","recreation",-105.161793947762,38.8821576374855,34230,7.5,10.3,0.0484,8.1806451613,23472,557.042572443664,12.294382438,10.475556645,22165,605,0.0272952853598015,-3.60104128914831
"275",8121,"Washington","CO",20,184,9.6,9.8,-0.2,-0.2,4.3,4.1,0.841200146,"West","Democrat","non-metro","farming",-103.201257201827,39.9710227257309,25744,11.7,11.7,0.2748,9.6128170895,4814,2518.08264446038,13.539430209,12.992753648,9820,3,0.000305498981670061,-8.0935641126804
"276",8123,"Weld","CO",9677,5903,13.6,5.8,7.8,1.1,21.2,22.3,0.565990785,"West","Democrat","metro","nonspecialized",-104.392458113942,40.5548621497044,27808,12.6,33.3,0.4814,9.3993736032,278065,3987.1659705312,13.748363782,13.564725693,738753,28444,0.0385027201243176,-3.2570263876045
"277",8125,"Yuma","CO",72,196,13.5,9.3,4.2,4.7,-1.7,3,0.803590065,"West","Democrat","non-metro","farming",-102.424258023551,40.0029431781447,23905,14.6,23.2,0.4546,13.419643969,10150,2364.39732329394,14.277809153,15.268201879,15012,45,0.00299760191846523,-5.80994267048459
"278",9001,"Fairfield","CT",-639,19524,10.2,7.4,2.8,5,-8.6,-3.5,0.380041737,"Northeast","Democrat","metro","nonspecialized",-73.389179329838,41.2711020524378,51719,8.8,36.5,0.4336,8.896320055,941618,624.969582632206,10.157896011,10.596030215,3640505,268310,0.0737013134166826,-2.60773465882376
"279",9003,"Hartford","CT",-860,25022,10.2,9.3,1,3.9,-5.8,-1.9,0.364183118,"Northeast","Democrat","metro","nonspecialized",-72.7328756131251,41.8064095800605,36570,11.6,36.7,0.5259,5.4384862036,895699,735.132612223714,11.356248016,13.044215939,2496707,263549,0.105558641843036,-2.24848863363824
"280",9005,"Litchfield","CT",-762,2470,7.6,10.2,-2.5,1.5,-3.1,-1.7,0.544436691,"Northeast","Democrat","adjacent","nonspecialized",-73.2453326101949,41.7924880409791,38859,6.9,10.1,0.0818,5.1257219936,185141,920.489610564852,12.063141174,10.678781863,327140,26763,0.0818090114324143,-2.50336787723062
"281",9007,"Middlesex","CT",-434,4961,7.7,9.5,-1.9,1.5,-2.2,-0.8,0.438560661,"Northeast","Democrat","metro","nonspecialized",-72.5351452843774,41.4631946605472,42573,7,15.3,0.0936,4.0905094268,164438,369.303246769922,11.316440612,10.377224369,275119,34605,0.125781934362948,-2.07320555104603
"282",9009,"New Haven","CT",-2214,28536,9.9,9.2,0.7,3.2,-6.5,-3.3,0.419645072,"Northeast","Democrat","metro","nonspecialized",-72.9321669255499,41.4104645715757,33706,12.8,35.2,0.5075,5.6898991941,860874,604.501468118316,12.843951967,14.442711452,2609369,204971,0.0785519411014694,-2.5439952029185
"283",9011,"New London","CT",-1079,10997,9.4,9.5,-0.1,1.2,-5.2,-4,0.437617382,"Northeast","Democrat","metro","nonspecialized",-72.1014745788975,41.4866224057031,35531,9.9,23.5,0.3496,5.0066805924,272033,665.142093409742,12.350839725,11.54628191,326933,19970,0.0610828518381442,-2.79552410950974
"284",9013,"Tolland","CT",32,14695,7.5,7,0.6,3,-3.3,-0.4,0.441646001,"Northeast","Democrat","metro","government",-72.3364967746125,41.8550516252635,36364,6.8,14.1,0.0675,3.7413953162,151689,410.322761860122,10.543489991,10.470404945,215041,12620,0.0586864830427686,-2.83554585050852
"285",9015,"Windham","CT",-277,4662,9.1,9.1,-0.1,1,-3.3,-2.3,0.506601342,"Northeast","Democrat","metro","nonspecialized",-71.9874528550809,41.8300291389128,28663,11.2,16.2,0.4457,5.6040261316,117078,512.87637547452,14.356951843,13.385187564,143969,2799,0.0194416853628212,-3.94033578808932
"286",10001,"Kent","DE",2246,4578,11.8,9.8,2.1,0.3,10.1,10.4,0.495871203,"South","Democrat","metro","government",-75.5684227738851,39.0861734375372,26118,13.2,36.7,0.6985,6.4075160659,171474,586.321714521086,16.823759503,18.955716012,436915,18324,0.0419395076845611,-3.1715269921428
"287",10003,"New Castle","DE",1203,17471,11.2,8.8,2.4,0.1,-0.4,-0.2,0.325944869,"South","Democrat","metro","nonspecialized",-75.6529640915753,39.576757913239,33240,11.4,40.8,0.391,5.5958405064,551997,426.318143778454,15.242558128,16.799934016,1395447,49224,0.0352747184235589,-3.34458876359804
"288",10005,"Sussex","DE",4836,2846,9.9,12,-2.1,-0.3,23.1,22.8,0.590625236,"South","Democrat","metro","recreation",-75.3900397120742,38.6605601522654,29630,12.9,25.2,0.4874,7.1545503038,211224,936.092125976144,16.085001169,17.813709196,1093085,34209,0.0312958278633409,-3.46427048542154
"289",11001,"Washington","DC",4202,38858,13.5,8.1,5.4,3.7,-3.1,0.6,0.040874745,"South","Democrat","metro","government",-77.0162961272994,38.9047417231598,48781,17.9,64.2,0.5918,4.3005780747,659009,61.145040141184,15.965592149,13.033793656,2384457,107841,0.0452266490861441,-3.09606878432701
"290",12001,"Alachua","FL",192,14648,10.3,7.7,2.6,3,-4.8,-1.9,0.364265659,"South","Republican","metro","government",-82.3577283403393,29.6747572164447,25758,24.2,37.5,0.4871,11.865669582,256581,875.053359252154,16.380852086,17.61444956,807899,5738,0.00710237294513299,-4.94732633314877
"291",12003,"Baker","FL",857,2839,11.2,9.5,1.7,0.2,27.9,28,0.814785499,"South","Republican","metro","government",-82.2846319580556,30.3311036612372,21222,18.5,17.9,0.7023,11.966438953,27312,585.229843161716,22.731956418,19.933229887,140406,1455,0.010362805008333,-4.56953232509787
"292",12005,"Bay","FL",-11535,3940,12.3,11,1.3,1.5,-66.9,-65.4,0.711170572,"South","Republican","metro","recreation",-85.6202513019245,30.2652218037659,25695,15.6,22.3,0.6027,14.834860487,178361,758.45956223961,22.708204482,19.769132811,623854,9848,0.0157857447415581,-4.14864797775203
"293",12007,"Bradford","FL",449,4226,10.2,12.5,-2.3,0.1,18.1,18.2,0.736733344,"South","Republican","adjacent","nonspecialized",-82.1687734665312,29.9499580023545,19852,19.3,25.2,0.9089,13.269099859,26919,293.963536484454,22.940737775,22.592265688,99801,1007,0.0100900792577229,-4.59620258957087
"294",12009,"Brevard","FL",6739,6801,8.8,12.5,-3.7,0.7,14.2,14.9,0.577750102,"South","Republican","metro","nonspecialized",-80.732275667484,28.293728824403,28189,14,24.2,0.4266,13.012913988,560683,1015.39162964746,16.866412293,17.606259239,994569,28216,0.0283700778930371,-3.56242028455228
"295",12011,"Broward","FL",6671,16292,11.2,8.2,3,6.7,-6.2,0.5,0.313661502,"South","Republican","metro","nonspecialized",-80.4871127783897,26.1523217018196,28987,14.4,60.8,0.5985,16.892308114,1863780,1206.95561184874,14.593792551,17.782269952,9014774,161388,0.0179026118680291,-4.02280866236487
"296",12013,"Calhoun","FL",-438,1686,9.3,11.5,-2.2,0,-28.6,-28.6,0.765499096,"South","Republican","adjacent","government",-85.1972018522593,30.4060277483005,16560,13.1,22.8,0.9179,15.210100612,14550,567.334111215012,22.384885446,24.27885071,66872,1452,0.0217131235793755,-3.82983842799425
"297",12015,"Charlotte","FL",4061,2883,5.6,15.2,-9.6,0.9,30.4,31.2,0.624836574,"South","Republican","metro","recreation",-81.9122600293285,26.905502725767,27860,12.4,15.4,0.4817,17.104715384,169642,681.1241791335,15.760805711,15.664628654,359735,18681,0.0519298928377834,-2.95786068471781
"298",12017,"Citrus","FL",1975,2251,7.2,18.2,-11,-0.1,24.3,24.2,0.683262233,"South","Republican","metro","nonspecialized",-82.4786491617478,28.8490814219045,24188,17.7,11.1,0.6087,15.446198085,140453,581.894093311004,19.587156047,17.740636584,275643,9761,0.0354117463530726,-3.34071169599838
"299",12019,"Clay","FL",3344,1250,10,8.6,1.4,0.8,13.2,14,0.703990308,"South","Republican","metro","nonspecialized",-81.8578864693468,29.9830753878317,27159,10.2,25.1,0.3559,11.350148781,200346,604.80764584601,19.886004808,17.649646777,544193,12129,0.022288048541602,-3.80370468402163
"300",12021,"Collier","FL",6701,4545,8.3,10.1,-1.9,5,14.4,19.4,0.617270433,"South","Republican","metro","recreation",-81.3475740269464,26.1107190462353,39616,13.2,35.8,0.4811,22.822206461,348236,1998.76949767872,14.441909851,17.720359431,1555665,25938,0.0166732554888103,-4.09394931101554
"301",12023,"Columbia","FL",1018,5474,11.3,12.1,-0.8,0.1,15,15,0.709513359,"South","Republican","adjacent","government",-82.6215430891593,30.2242575185496,21875,19.4,26.7,0.859,12.380897934,68198,797.543105530918,23.294815312,22.958561177,398758,5019,0.0125865813350453,-4.37512400592093
"302",12027,"De Soto","FL",633,3588,10.3,9.6,0.7,4.1,11.9,16,0.626548345,"South","Republican","adjacent","nonspecialized",-81.8094165898581,27.1863620920299,16710,29.9,45,0.9901,23.070258349,35134,637.05982120008,21.3119303,26.088680623,194725,3259,0.0167364231608679,-4.09016790695059
"303",12029,"Dixie","FL",141,1761,8.4,13.6,-5.2,-0.2,13.8,13.7,0.808386559,"South","Republican","adjacent","government",-83.1588449977868,29.6081620091438,18490,21.5,15,0.8453,15.82024114,16084,705.104208327132,24.651650474,24.45111594,80754,912,0.0112935582138346,-4.48352278538744
"304",12031,"Duval","FL",9103,20537,13.7,9.3,4.4,2.1,3.1,5.2,0.489194467,"South","Republican","metro","nonspecialized",-81.6708462314917,30.3315791083013,27235,16.6,45.3,0.6708,13.234188986,900890,762.63429976716,19.790158358,19.448976994,3446003,40942,0.0118810111308667,-4.43281385664365
"305",12033,"Escambia","FL",3212,17837,12,11.2,0.8,0.6,8.6,9.3,0.582465944,"South","Republican","metro","nonspecialized",-87.3627878913973,30.6689322845841,24532,14.7,34.8,0.4906,11.383121915,309574,656.88801025917,20.245830172,18.826302309,1366470,24469,0.0179067231626014,-4.02257904097777
"306",12035,"Flagler","FL",2996,684,7.1,12.2,-5.1,0.2,31.1,31.3,0.588664939,"South","Republican","metro","nonspecialized",-81.3135608867855,29.4614390620826,25314,13.2,25,0.3352,14.721592538,102917,485.471389107484,17.427531782,17.306801593,187906,2817,0.0149915383223527,-4.20026934889403
"307",12037,"Franklin","FL",449,1763,7.9,9.3,-1.4,0.2,38.5,38.7,0.685785536,"South","Republican","adjacent","government",-84.801892556255,29.8896996426742,21515,20.7,21.7,0.815,17.72597913,11705,545.144675992518,19.523046263,19.378118399,58881,330,0.00560452437968105,-5.18418108249366
"308",12039,"Gadsden","FL",-267,3269,11.4,11.4,0,0.9,-6.6,-5.7,0.304255415,"South","Republican","metro","government",-84.6136279909658,30.5794832352957,18187,25.6,67.1,0.9876,16.312016223,46153,516.292979717256,20.373594507,25.833465071,292369,4460,0.0152546952652299,-4.18286793707138
"309",12041,"Gilchrist","FL",298,1208,9.9,11.2,-1.3,0.2,17.3,17.4,0.800475059,"South","Republican","metro","government",-82.8003889834418,29.7258393796351,21620,23.8,12.7,0.7746,15.529126581,17033,349.694713069142,21.253157716,21.12675716,56173,1190,0.0211845548573158,-3.85448290728789
"310",12043,"Glades","FL",125,1468,4.7,9.4,-4.7,1.1,12.6,13.7,0.688260969,"South","Republican","adjacent","nonspecialized",-81.18899774099,26.9564726625313,17798,20.7,39.1,0.9538,25.883600377,13420,806.674701615888,20.431303854,21.102866773,61483,559,0.00909194411463331,-4.70036651966347
"311",12045,"Gulf","FL",-2507,399,7.5,12.5,-5,-0.1,-165.3,-165.4,0.730700672,"South","Republican","metro","government",-85.2265964583895,29.9555393978194,20050,15.3,26.2,0.6651,13.465447154,15851,553.587288116466,20.209306763,20.911351246,85840,1116,0.0130009319664492,-4.34273423436332
"312",12047,"Hamilton","FL",166,2707,11.4,9,2.4,-0.1,9.2,9.1,0.630586081,"South","Republican","adjacent","government",-82.9479384623196,30.4963935430425,15970,27,45.3,0.9844,15.103199738,14362,513.781907444956,22.128517406,25.742660067,102848,792,0.00770068450528936,-4.86644605728276
"313",12049,"Hardee","FL",-231,1595,12.5,7.1,5.4,-0.1,-13.9,-14,0.691283133,"South","Republican","adjacent","nonspecialized",-81.8099393529568,27.4927008004759,17179,26.4,52.4,0.9949,20.037532254,27302,637.7894999258,19.168882474,27.179069852,153498,1195,0.00778511772140354,-4.85554135224293
"314",12051,"Hendry","FL",686,696,13.8,8.5,5.3,8.2,3,11.2,0.557354926,"South","Republican","adjacent","farming",-81.1658428890445,26.5534768240506,18027,26.3,66.1,0.9955,26.854294928,38376,1156.30290552671,19.793274032,28.676378137,266447,5844,0.0219330673642413,-3.8197598556429
"315",12053,"Hernando","FL",3338,1833,8.3,14.8,-6.5,0.3,23.6,23.8,0.628704849,"South","Republican","metro","nonspecialized",-82.4250326909746,28.5536341260581,22435,15.6,19.9,0.6157,15.797323021,176797,472.825213466768,19.215223075,18.530978125,328400,11654,0.0354872107186358,-3.33858290885739
"316",12055,"Highlands","FL",1288,1733,8.1,15.4,-7.3,2.4,17,19.5,0.64713479,"South","Republican","metro","nonspecialized",-81.3410547851983,27.3433270024218,21916,19.4,31.1,0.8516,18.486193894,98862,1016.58583116429,18.734961392,20.937252905,233885,8782,0.0375483677875879,-3.28212536942412
"317",12057,"Hillsborough","FL",20049,23499,11.8,8,3.8,3.6,6.3,9.9,0.44652478,"South","Republican","metro","nonspecialized",-82.3087876698058,27.929356345131,28727,16.4,48.8,0.6905,14.289538971,1323059,1020.31353786573,17.455544372,19.551459223,4823788,71759,0.0148760683512625,-4.2080015081959
"318",12059,"Holmes","FL",174,1759,10.1,12.8,-2.7,-0.2,11.7,11.5,0.878905332,"South","Republican","adjacent","government",-85.8140298261751,30.8679194921516,17854,26,12.6,0.8727,15.679643088,19569,478.75497802142,20.857747225,23.773558654,80598,697,0.0086478572669297,-4.75044370353054
"319",12061,"Indian River","FL",2736,1328,8.1,13.7,-5.6,1.3,21.5,22.8,0.607681636,"South","Republican","metro","recreation",-80.6062479668596,27.6943170390158,32208,14.1,23.6,0.4769,16.920089648,145342,502.781136751502,15.487215591,17.091300747,365312,11403,0.0312144139803784,-3.46687530429904
"320",12063,"Jackson","FL",-1698,6320,10.6,13.5,-2.8,0.6,-34,-33.4,0.677581864,"South","Republican","adjacent","government",-85.215497529047,30.7954308691357,17222,22.9,34.3,0.9672,15.176675646,48721,918.176369621414,23.055297094,22.69921073,293297,7170,0.0244462098146248,-3.71128009288452
"321",12065,"Jefferson","FL",-75,1270,8.5,10.2,-1.7,0.4,-3.9,-3.5,0.514061478,"South","Republican","metro","government",-83.8952859507484,30.4375089457707,21311,15.8,42,0.7558,13.591035263,14082,598.093796160614,19.575053118,20.145540148,59433,1075,0.0180875944340686,-4.01252896608067
"322",12067,"Lafayette","FL",-269,1261,7.4,9,-1.6,-0.6,-29.7,-30.3,0.828125,"South","Republican","non-metro","government",-83.181096092364,29.9855094897978,19341,18,30.7,0.9449,19.768270945,8742,543.410737470554,22.301956406,20.869941251,107980,983,0.00910353769216522,-4.69909218362511
"323",12069,"Lake","FL",10398,3947,9.4,12.2,-2.9,0.6,30.8,31.4,0.599476716,"South","Republican","metro","nonspecialized",-81.7112564949174,28.7615496739505,24760,13.5,28.1,0.6517,15.534541111,317586,940.875556009408,16.845825454,17.367122453,813903,17324,0.0212850917124031,-3.84974837093033
"324",12071,"Lee","FL",16107,8475,8.9,10.4,-1.6,2.9,19.7,22.6,0.586823724,"South","Republican","metro","recreation",-81.8199654017012,26.5791210815914,28949,15.5,30.9,0.6364,18.616852934,680970,784.08309598646,14.343887724,17.938049762,2453928,57174,0.0232989720969808,-3.75934603539303
"325",12073,"Leon","FL",1925,15020,10.2,6.6,3.6,1.4,1.6,3.1,0.353778298,"South","Republican","metro","government",-84.277895943733,30.4580485013898,27190,21.3,42.6,0.5037,10.804434125,284788,666.86438014555,17.327578634,15.800833796,986035,6833,0.00692977429807258,-4.9719280351314
"326",12075,"Levy","FL",705,334,9.9,13.4,-3.5,0,20.5,20.5,0.710234597,"South","Republican","adjacent","nonspecialized",-82.7432191912375,29.3186489201704,20555,22.2,19.5,0.8497,18.018528392,39707,1118.23103364564,23.61738764,22.997053492,108678,894,0.00822613592447414,-4.80043888554746
"327",12077,"Liberty","FL",-73,2050,8.5,9.2,-0.7,-0.6,-7.4,-8,0.771541262,"South","Republican","adjacent","government",-84.8829027573244,30.2413801271872,17218,16.9,26.3,0.8698,14.697236919,8285,835.562989549894,23.553017404,24.991287271,67526,838,0.0124100346533187,-4.38924988739895
"328",12079,"Madison","FL",-47,2021,9.6,12.9,-3.3,0.8,0.1,0.9,0.57037037,"South","Republican","adjacent","nonspecialized",-83.4701313484372,30.4441087389549,16486,28.5,45.5,0.978,14.182616881,18560,696.106148321576,20.686696695,24.479782231,110011,2046,0.0185981401859814,-3.98469369326331
"329",12081,"Manatee","FL",8866,4813,8.7,10.9,-2.1,1.8,22.5,24.2,0.569653215,"South","Republican","metro","recreation",-82.315280273276,27.4718886714733,29140,14.3,27.9,0.5546,16.054229912,353411,743.15612954566,15.218624112,16.724621365,1365122,38266,0.0280311942815367,-3.57443730745171
"330",12083,"Marion","FL",6517,9215,9.6,14.2,-4.6,0,22.5,22.5,0.617246709,"South","Republican","metro","nonspecialized",-82.0566601157237,29.2102075865768,22390,18.2,28,0.765,15.358412201,340341,1588.03071477462,18.665004178,21.229587906,973934,24623,0.0252820006283793,-3.67766257405396
"331",12085,"Martin","FL",258,4213,7.8,12.6,-4.8,0.4,6,6.4,0.620151063,"South","Republican","metro","recreation",-80.4314798552769,27.0775304773073,35892,11.8,20.6,0.4416,16.991320052,153592,543.726283963278,14.321281404,14.975334514,599612,15102,0.0251862871323456,-3.68145559398917
"332",12086,"Miami-Dade","FL",2086,42224,11.3,8,3.4,14,-16.6,-2.6,0.340744376,"South","Republican","metro","nonspecialized",-80.5637148542809,25.6158805542006,24515,19.9,85.5,0.8344,20.017799721,2664418,1898.66231050656,16.479410011,23.648069837,19806133,367063,0.0185327948671252,-3.98821342074787
"333",12087,"Monroe","FL",-529,1995,9.2,9.9,-0.7,3.7,-10.1,-6.4,0.515655163,"South","Republican","adjacent","recreation",-81.0541129529792,25.5099669427042,36771,13,31.7,0.4728,20.271794958,77150,983.014602034054,17.172898463,16.403822903,213307,2395,0.0112279484498868,-4.48934921170369
"334",12089,"Nassau","FL",2689,543,9.8,11.2,-1.4,-0.2,32.2,32.1,0.735211449,"South","Republican","metro","recreation",-81.8016190655467,30.6106048105384,31141,12.7,12.5,0.3286,12.484949523,77187,648.63844874912,19.388869012,15.150678049,213660,3449,0.0161424693438173,-4.12630163256304
"335",12091,"Okaloosa","FL",3804,4831,12.9,9.3,3.6,0.4,14.2,14.5,0.712835259,"South","Republican","metro","nonspecialized",-86.5917596799802,30.6912973284331,29603,12,25.1,0.3528,13.452469892,195798,930.261600446348,18.468031092,15.266245736,540423,10087,0.0186650087061432,-3.98110470017353
"336",12093,"Okeechobee","FL",514,3027,12.9,10.7,2.3,1.5,8.5,10,0.685270636,"South","Republican","adjacent","nonspecialized",-80.8886269358594,27.3864368539286,17173,25.3,36.2,0.9698,22.455109806,39420,768.90331245801,21.460209258,23.581444426,165064,2369,0.0143520089177531,-4.24386535230628
"337",12095,"Orange","FL",11912,35752,12.2,6.4,5.8,5.2,-2.4,2.8,0.357358473,"South","Republican","metro","recreation",-81.3235201562608,28.5144325329396,26210,17.3,57.3,0.6909,15.652447107,1256055,903.314431050894,15.599881132,19.45418537,4652633,48624,0.0104508565365031,-4.56107133871468
"338",12097,"Osceola","FL",7295,3286,12.1,6.6,5.5,3.2,10.9,14.1,0.35876496,"South","Republican","metro","recreation",-81.1494788015105,28.0626843783821,19482,19.5,64.5,0.8551,16.152249365,311962,1327.66417316517,17.791410063,24.098193617,1397929,16948,0.0121236486259316,-4.41259730190141
"339",12099,"Palm Beach","FL",13894,21855,10,10.4,-0.3,5.2,4.5,9.7,0.411277124,"South","Republican","metro","recreation",-80.4654835978099,26.647608850507,34846,13.9,43.1,0.5718,17.446292916,1398757,1969.89213913403,15.916105958,17.401196261,5585305,168109,0.030098445832412,-3.50328174203504
"340",12101,"Pasco","FL",14857,5794,9.5,11.8,-2.3,0.9,28.5,29.4,0.589290824,"South","Republican","metro","nonspecialized",-82.3923796272205,28.3093079511327,25225,13.6,22.7,0.6367,14.948817639,488310,747.64356143046,18.629613172,18.363890598,1043967,20976,0.0200925891335646,-3.90740423172626
"341",12103,"Pinellas","FL",1938,19925,8.3,13.2,-4.9,1.4,5.5,6.9,0.485782987,"South","Republican","metro","nonspecialized",-82.7253669853184,27.9192951025552,31035,14.1,24.7,0.5174,14.335398909,939548,273.793346381906,16.411541985,16.918983111,2621742,82747,0.0315618394182189,-3.45580650148934
"342",12105,"Polk","FL",18180,13797,11.2,10.1,1.1,0.9,23.2,24.2,0.553718776,"South","Republican","metro","nonspecialized",-81.6975838508671,27.9488873001352,21669,17.7,38.1,0.9277,15.757248537,637691,1796.75632971508,19.135508961,20.695156953,2191551,56667,0.0258570300212042,-3.65517276060198
"343",12107,"Putnam","FL",478,1422,11.1,13.9,-2.8,-0.3,9.5,9.2,0.668478425,"South","Republican","adjacent","nonspecialized",-81.7443132724259,29.6086560495326,18561,27,28.1,0.9516,17.168019716,72304,727.879223603518,23.620471789,24.952601208,232213,4403,0.0189610400795821,-3.96536892714178
"344",12109,"St Johns","FL",10858,2966,8.5,8.1,0.4,0.3,41,41.3,0.649633005,"South","Republican","metro","recreation",-81.4406715500261,29.9016491605143,38362,9,15.9,0.0882,10.647598378,218362,600.694826337894,15.059046719,12.686897,585895,7088,0.0120977308220756,-4.41473737933205
"345",12111,"St Lucie","FL",7872,3040,9.5,10.8,-1.3,1.9,23.6,25.5,0.499045063,"South","Republican","metro","nonspecialized",-80.4720289686123,27.3772618163827,24104,17.9,40.7,0.7676,16.924197757,293136,571.676965661504,18.069282607,19.318883102,890065,30037,0.0337469735356407,-3.38886453870252
"346",12113,"Santa Rosa","FL",5018,6169,10.8,9.3,1.5,-0.4,26.3,26,0.744646419,"South","Republican","metro","nonspecialized",-87.0219824030187,30.7004473522769,28219,12.3,16.9,0.341,12.514526796,163903,1011.75952025681,19.218047737,16.818103932,566633,7641,0.0134849188098822,-4.30618334318111
"347",12115,"Sarasota","FL",7413,6004,6.6,14.2,-7.7,1.7,23.1,24.8,0.543247927,"South","Republican","metro","recreation",-82.3315048815704,27.1844716548068,35210,11,16.3,0.2827,16.300588488,398011,555.790079177376,15.030472177,13.060282648,934940,32127,0.0343626328962286,-3.37078555801979
"348",12117,"Seminole","FL",3704,3513,10,7.8,2.2,1.8,3.9,5.7,0.486638268,"South","Republican","metro","nonspecialized",-81.23630140979,28.7169796988243,30097,12.1,36.6,0.1786,10.133157964,442905,309.479571997582,15.642006468,16.051029717,1055001,20900,0.0198104077626467,-3.92154783480625
"349",12119,"Sumter","FL",3701,8271,3.7,15.4,-11.8,-0.4,40.4,39.9,0.687797561,"South","Republican","metro","government",-82.0809695594942,28.7047521043205,31591,9.9,15.3,0.2881,11.904453371,113589,547.644537407146,12.204715406,14.491041177,254104,8058,0.0317114252432075,-3.45107824526699
"350",12121,"Suwannee","FL",238,2509,10,12.7,-2.6,-0.1,8.1,8,0.764255911,"South","Republican","adjacent","nonspecialized",-82.9914950230556,30.1956088256505,19322,22.7,24.4,0.9643,17.20233977,43653,688.55156732271,22.567956415,24.346214834,285671,8221,0.0287778598457666,-3.54814894283949
"351",12123,"Taylor","FL",24,2430,10,12,-1.9,0.2,2.9,3.1,0.745963402,"South","Republican","adjacent","manufacturing",-83.6035295682106,30.0470020215759,16081,14.8,27.8,0.843,14.918054809,22582,1043.30126677257,23.787929353,23.831960993,129105,1104,0.00855117927268502,-4.76168607891464
